[{"market_uid":1,"pharmacy_name":"가평온누리약국","address":"경기도 가평군 가평읍 가화로 113","latitude":"37.8296499","longitude":"127.5133047","phone_number":"031-581-8777","market_hash_key":"-1"},{"market_uid":2,"pharmacy_name":"감초온누리약국","address":"경기도 가평군 설악면 신천중앙로88번길 1","latitude":"37.6768064","longitude":"127.4937563","phone_number":"031-585-1008","market_hash_key":"-1"},{"market_uid":3,"pharmacy_name":"고향약국","address":"경기도 가평군 설악면 한서로 9","latitude":"37.6765855","longitude":"127.4948884","phone_number":"031-584-1902","market_hash_key":"-1"},{"market_uid":4,"pharmacy_name":"굿모닝약국","address":"경기도 가평군 청평면 청평중앙로 45-1","latitude":"37.7378525","longitude":"127.4195104","phone_number":"031-585-4638","market_hash_key":"-1"},{"market_uid":5,"pharmacy_name":"단비약국","address":"경기도 가평군 북면 화악산로 9","latitude":"37.8861475794","longitude":"127.5493541878","phone_number":"031-582-8151","market_hash_key":"-1"},{"market_uid":6,"pharmacy_name":"대성약국","address":"경기도 가평군 설악면 신천중앙로 118 (상가 102호)","latitude":"37.6779716","longitude":"127.4908847","phone_number":"031-584-1050","market_hash_key":"-1"},{"market_uid":7,"pharmacy_name":"란약국","address":"경기도 가평군 청평면 경춘로 1401, 2층","latitude":"37.7762660","longitude":"127.4615303","phone_number":"031-581-0625","market_hash_key":"-1"},{"market_uid":8,"pharmacy_name":"모범약국","address":"경기도 가평군 상면 청군로 696","latitude":"37.7739317","longitude":"127.3719846","phone_number":"031-585-9630","market_hash_key":"-1"},{"market_uid":9,"pharmacy_name":"보령약국","address":"경기도 가평군 가평읍 가화로 123, 보령약국","latitude":"37.8304529","longitude":"127.5130262","phone_number":"031-582-7639","market_hash_key":"-1"},{"market_uid":10,"pharmacy_name":"서울프라자약국","address":"경기도 가평군 조종면 현창로38번길 4-1 (서울프라자약국)","latitude":"37.8184549","longitude":"127.3487082","phone_number":"031-585-1007","market_hash_key":"-1"},{"market_uid":11,"pharmacy_name":"설악약국","address":"경기도 가평군 설악면 미사리로540번길 51","latitude":"37.7015856","longitude":"127.5464997","phone_number":"","market_hash_key":"-1"},{"market_uid":12,"pharmacy_name":"소명약국","address":"경기도 가평군 가평읍 석봉로 198","latitude":"37.8325651","longitude":"127.5100192","phone_number":"031-581-0388","market_hash_key":"-1"},{"market_uid":13,"pharmacy_name":"연인산약국","address":"경기도 가평군 가평읍 가화로 47","latitude":"37.8240099","longitude":"127.5154125","phone_number":"031-581-8362","market_hash_key":"-1"},{"market_uid":14,"pharmacy_name":"용한약국","address":"경기도 가평군 설악면 신천중앙로 103","latitude":"37.6770570","longitude":"127.4920010","phone_number":"031-584-7322","market_hash_key":"-1"},{"market_uid":15,"pharmacy_name":"우리약국","address":"경기도 가평군 조종면 현창로 37 (우리약국)","latitude":"37.8181772","longitude":"127.3481505","phone_number":"031-585-4599","market_hash_key":"-1"},{"market_uid":16,"pharmacy_name":"우림약국","address":"경기도 가평군 가평읍 가화로 155-19 (우림약국)","latitude":"37.8328693100","longitude":"127.5105211361","phone_number":"031-582-5661","market_hash_key":"-1"},{"market_uid":17,"pharmacy_name":"은혜약국","address":"경기도 가평군 가평읍 연인길 3","latitude":"37.8283497","longitude":"127.5139659","phone_number":"031-581-7227","market_hash_key":"-1"},{"market_uid":18,"pharmacy_name":"조일약국","address":"경기도 가평군 가평읍 석봉로 224","latitude":"37.8348206","longitude":"127.5092735","phone_number":"031-581-1718","market_hash_key":"-1"},{"market_uid":19,"pharmacy_name":"종로약국","address":"경기도 가평군 청평면 청평중앙로 37-1","latitude":"37.7374411","longitude":"127.4186459","phone_number":"031-584-8716","market_hash_key":"-1"},{"market_uid":20,"pharmacy_name":"청평약국","address":"경기도 가평군 청평면 청평중앙로 57, 1층","latitude":"37.7384346","longitude":"127.4205120","phone_number":"031-584-0263","market_hash_key":"-1"},{"market_uid":21,"pharmacy_name":"프라자약국","address":"경기도 가평군 청평면 청평중앙로 35","latitude":"37.7373247","longitude":"127.4184524","phone_number":"031-584-0315","market_hash_key":"-1"},{"market_uid":22,"pharmacy_name":"한마음약국","address":"경기도 가평군 가평읍 연인1길 1","latitude":"37.8292882","longitude":"127.5136089","phone_number":"031-582-2174","market_hash_key":"-1"},{"market_uid":23,"pharmacy_name":"한천당약국","address":"경기도 가평군 가평읍 가화로 118","latitude":"37.8301256","longitude":"127.5137169","phone_number":"031-582-4994","market_hash_key":"-1"},{"market_uid":24,"pharmacy_name":"현대약국","address":"경기도 가평군 조종면 현창로 41-1 (현대약국)","latitude":"37.8184568","longitude":"127.3480382","phone_number":"031-584-3524","market_hash_key":"-1"},{"market_uid":25,"pharmacy_name":"효정약국","address":"경기도 가평군 설악면 미사리로 267-181, 1층","latitude":"37.6903092","longitude":"127.5217243","phone_number":"031-585-7639","market_hash_key":"-1"},{"market_uid":26,"pharmacy_name":"1004 약국","address":"경기도 고양시 덕양구 동세로 19, 아카메디 105호 (동산동)","latitude":"37.6445515","longitude":"126.8862326","phone_number":"02-381-5052","market_hash_key":"-1"},{"market_uid":27,"pharmacy_name":"365약국","address":"경기도 고양시 일산동구 중앙로1275번길 60-14, 302호 (장항동, 고일프라자 )","latitude":"37.6595777","longitude":"126.7695137","phone_number":"031-907-7365","market_hash_key":"-1"},{"market_uid":28,"pharmacy_name":"365종로약국","address":"경기도 고양시 일산서구 일산로 530, 1층 (일산동, 모아프라자)","latitude":"37.6774069","longitude":"126.7690498","phone_number":"031-921-5232","market_hash_key":"-1"},{"market_uid":29,"pharmacy_name":"3층사랑약국","address":"경기도 고양시 덕양구 무원로 63, 308호 (행신동, 무원마을10단지서광상가)","latitude":"37.6181928","longitude":"126.8304899","phone_number":"031-979-6991","market_hash_key":"-1"},{"market_uid":30,"pharmacy_name":"가까운약국","address":"경기도 고양시 일산동구 강송로 49, 102호 (백석동, 윈스턴파크아이)","latitude":"37.6447721","longitude":"126.7920401","phone_number":"031-901-7939","market_hash_key":"-1"},{"market_uid":31,"pharmacy_name":"가나약국","address":"경기도 고양시 일산서구 중앙로 1449, 108호 (주엽동, 효원빌딩)","latitude":"37.6705755","longitude":"126.7591308","phone_number":"031 912 2627","market_hash_key":"-1"},{"market_uid":32,"pharmacy_name":"가은약국","address":"경기도 고양시 일산서구 탄중로233번길 25, 105호 (탄현동, 외 1필지 양우프라자)","latitude":"37.6945184","longitude":"126.7702093","phone_number":"031 923 6039","market_hash_key":"-1"},{"market_uid":33,"pharmacy_name":"가장약국","address":"경기도 고양시 덕양구 동헌로1번길 7 (관산동)","latitude":"37.7051277","longitude":"126.8576179","phone_number":"031-962-4810","market_hash_key":"-1"},{"market_uid":34,"pharmacy_name":"강선약국","address":"경기도 고양시 일산서구 대산로 117, 101호 (주엽동)","latitude":"37.6738745","longitude":"126.7642435","phone_number":"031 925 1141","market_hash_key":"-1"},{"market_uid":35,"pharmacy_name":"건강드림약국","address":"경기도 고양시 덕양구 도래울로 52, 102호 (도내동, 센터프라자)","latitude":"37.6302443536","longitude":"126.8694548301","phone_number":"031-965-7582","market_hash_key":"-1"},{"market_uid":36,"pharmacy_name":"건강드림온누리약국","address":"경기도 고양시 일산서구 강성로 275, 101호 (대화동, 스타타워빌딩)","latitude":"37.6772071","longitude":"126.7466286","phone_number":"911-8275","market_hash_key":"-1"},{"market_uid":37,"pharmacy_name":"건강약국","address":"경기도 고양시 덕양구 호국로 792, 1층 (성사동, 천일빌딩)","latitude":"37.6565470","longitude":"126.8366228","phone_number":"031-963-9639","market_hash_key":"-1"},{"market_uid":38,"pharmacy_name":"건강을요리하는약국","address":"경기도 고양시 일산동구 중앙로 1130, 상가동 2층 A2-8호 (마두동, 강촌마을6단지아파트)","latitude":"37.6496066","longitude":"126.7802078","phone_number":"031-965-4321","market_hash_key":"-1"},{"market_uid":39,"pharmacy_name":"건강한약국","address":"경기도 고양시 일산서구 일산로 526, 1층 (일산동, 진송빌딩)","latitude":"37.6771826","longitude":"126.7695493","phone_number":"031 916 8645","market_hash_key":"-1"},{"market_uid":40,"pharmacy_name":"경원약국","address":"경기도 고양시 일산동구 동국로 26, 1층 (식사동)","latitude":"37.6763778","longitude":"126.8075937","phone_number":"031-969-2900","market_hash_key":"-1"},{"market_uid":41,"pharmacy_name":"경희선한약국","address":"경기도 고양시 일산동구 중앙로 1130, B동 37호 (마두동, 강촌마을6단지아파트)","latitude":"37.6496066","longitude":"126.7802078","phone_number":"031-902-2889","market_hash_key":"-1"},{"market_uid":42,"pharmacy_name":"경희순수 한약국","address":"경기도 고양시 일산서구 일현로 97-11, 1층 106호 (탄현동, 두산위브더제니스스퀘어)","latitude":"37.6940982","longitude":"126.7628408","phone_number":"031-916-1113","market_hash_key":"-1"},{"market_uid":43,"pharmacy_name":"경희유원한약국","address":"경기도 고양시 덕양구 토당로 52, 102호 (토당동, 능곡프라자)","latitude":"37.6204934","longitude":"126.8205735","phone_number":"031-979-6160","market_hash_key":"-1"},{"market_uid":44,"pharmacy_name":"경희참한약국","address":"경기도 고양시 일산동구 일산로463번길 77-1, 1층 (정발산동)","latitude":"37.6710731","longitude":"126.7736262","phone_number":"031-911-7306","market_hash_key":"-1"},{"market_uid":45,"pharmacy_name":"경희한약국 순수착한맘","address":"경기도 고양시 일산서구 일현로 97-11, 106호 (탄현동, 일산 위브더제니스)","latitude":"37.6940982","longitude":"126.7628408","phone_number":"031-916-1113","market_hash_key":"-1"},{"market_uid":46,"pharmacy_name":"경희행복한약국","address":"경기도 고양시 덕양구 중앙로 559, 그랑프리빌딩 105호 (행신동)","latitude":"37.6234697","longitude":"126.8347369","phone_number":"031-971-7767","market_hash_key":"-1"},{"market_uid":47,"pharmacy_name":"고려약국","address":"경기도 고양시 일산서구 원일로 73 (일산동)","latitude":"37.6863471","longitude":"126.7704275","phone_number":"031-975-6611","market_hash_key":"-1"},{"market_uid":48,"pharmacy_name":"고봉약국","address":"경기도 고양시 일산동구 공릉천로 32 (사리현동)","latitude":"37.6961284","longitude":"126.8446188","phone_number":"031-964-4290","market_hash_key":"-1"},{"market_uid":49,"pharmacy_name":"고양새물약국","address":"경기도 고양시 덕양구 혜음로 36 (고양동)","latitude":"37.7035434674","longitude":"126.9021744998","phone_number":"031-962-4817","market_hash_key":"-1"},{"market_uid":50,"pharmacy_name":"고양이화약국","address":"경기도 고양시 덕양구 혜음로 38 (고양동)","latitude":"37.7038497","longitude":"126.9021400","phone_number":"031-969-1711","market_hash_key":"-1"},{"market_uid":51,"pharmacy_name":"고양하나로약국","address":"경기도 고양시 일산서구 대화로 362, 1층 (대화동, 고양농수산물종합유통센터)","latitude":"37.6831821","longitude":"126.7473562","phone_number":"070-4228-1128","market_hash_key":"-1"},{"market_uid":52,"pharmacy_name":"고양힐약국","address":"경기도 고양시 덕양구 보광로 2, 1층 일부호 (고양동)","latitude":"37.7171020","longitude":"126.9011694","phone_number":"031-967-7744","market_hash_key":"-1"},{"market_uid":53,"pharmacy_name":"고운맘약국","address":"경기도 고양시 덕양구 호국로789번길 3, 108호 (주교동, 중앙빌딩)","latitude":"37.6566902","longitude":"126.8359312","phone_number":"031-968-1206","market_hash_key":"-1"},{"market_uid":54,"pharmacy_name":"곰돌이약국","address":"경기도 고양시 덕양구 덕수천2로 150, 상가동 2층 28호 (동산동)","latitude":"37.6491640","longitude":"126.8952225","phone_number":"02-381-7792","market_hash_key":"-1"},{"market_uid":55,"pharmacy_name":"광장약국","address":"경기도 고양시 일산서구 중앙로 1437, 411호 (주엽동, 화성프라자)","latitude":"37.6699656","longitude":"126.7604589","phone_number":"031 918 2515","market_hash_key":"-1"},{"market_uid":56,"pharmacy_name":"굿모닝약국","address":"경기도 고양시 덕양구 화중로 76, 406호 (화정동, 대감빌딩)","latitude":"37.6338526","longitude":"126.8310655","phone_number":"031-938-9386","market_hash_key":"-1"},{"market_uid":57,"pharmacy_name":"굿모닝조은약국","address":"경기도 고양시 일산동구 강송로 49, 105, 106호 (백석동, 윈스턴파크아이)","latitude":"37.6447721","longitude":"126.7920401","phone_number":"031-906-0075","market_hash_key":"-1"},{"market_uid":58,"pharmacy_name":"그레이스온누리약국","address":"경기도 고양시 덕양구 중앙로 548, 102호 (행신동, 현대프라자)","latitude":"37.6232199","longitude":"126.8364819","phone_number":"031-978-8980","market_hash_key":"-1"},{"market_uid":59,"pharmacy_name":"그린약국","address":"경기도 고양시 덕양구 푸른마을로 6, 308호 (고양동, 고양 e PLAZA)","latitude":"37.7087696","longitude":"126.9028591","phone_number":"031-962-6819","market_hash_key":"-1"},{"market_uid":60,"pharmacy_name":"기쁨약국","address":"경기도 고양시 일산서구 강선로 49, 일산비스타오피스텔 103호 (주엽동)","latitude":"37.6686830","longitude":"126.7633193","phone_number":"031-924-4500","market_hash_key":"-1"},{"market_uid":61,"pharmacy_name":"꽃우물약국","address":"경기도 고양시 덕양구 화중로 60, 104호 (화정동)","latitude":"37.6323295","longitude":"126.8307632","phone_number":"070-4135-6717","market_hash_key":"-1"},{"market_uid":62,"pharmacy_name":"꿈나무약국","address":"경기도 고양시 덕양구 도래울로 40, 103호 (도내동, 예승골드프라자)","latitude":"37.6292705","longitude":"126.8687542","phone_number":"070-4213-7707","market_hash_key":"-1"},{"market_uid":63,"pharmacy_name":"나누는기쁨약국","address":"경기도 고양시 덕양구 도래울로 104, KB골든타워 108호 (도내동)","latitude":"37.6343015","longitude":"126.8719286","phone_number":"031-962-1270","market_hash_key":"-1"},{"market_uid":64,"pharmacy_name":"나라약국","address":"경기도 고양시 일산서구 산현로 15, 206호 (탄현동, 무광프라자)","latitude":"37.6894857","longitude":"126.7630144","phone_number":"031 918 6311","market_hash_key":"-1"},{"market_uid":65,"pharmacy_name":"나래약국","address":"경기도 고양시 덕양구 화중로 50, 301(일부)호 (화정동)","latitude":"37.6316085706","longitude":"126.8306176010","phone_number":"070-5222-6627","market_hash_key":"-1"},{"market_uid":66,"pharmacy_name":"나무약국","address":"경기도 고양시 일산동구 일산로 46, 남정씨티프라자 113호 (백석동)","latitude":"37.6422689","longitude":"126.7878437","phone_number":"031-932-6102","market_hash_key":"-1"},{"market_uid":67,"pharmacy_name":"나무온누리약국","address":"경기도 고양시 일산동구 중산로 105, 107호 (중산동, 현해프라자)","latitude":"37.6813677212","longitude":"126.7812692372","phone_number":"031-977-9760","market_hash_key":"-1"},{"market_uid":68,"pharmacy_name":"나실약국","address":"경기도 고양시 덕양구 통일로 760, 3층 324호 (관산동, 더퍼스트프라임)","latitude":"37.6877672","longitude":"126.8660300","phone_number":"031-968-8696","market_hash_key":"-1"},{"market_uid":69,"pharmacy_name":"내유녹십자약국","address":"경기도 고양시 덕양구 유산길 3 (내유동, 지하1층)","latitude":"37.7253992","longitude":"126.8435924","phone_number":"031-963-3188","market_hash_key":"-1"},{"market_uid":70,"pharmacy_name":"내유동우리약국","address":"경기도 고양시 덕양구 유산길 22, 101호 (내유동)","latitude":"37.7260955","longitude":"126.8454852","phone_number":"031-962-2830","market_hash_key":"-1"},{"market_uid":71,"pharmacy_name":"내유원약국","address":"경기도 고양시 덕양구 유산길 33, 1층 (내유동)","latitude":"37.7265926106","longitude":"126.8466752608","phone_number":"031-963-2263","market_hash_key":"-1"},{"market_uid":72,"pharmacy_name":"내유푸른약국","address":"경기도 고양시 덕양구 내유길 27, 1(일부)층 (내유동)","latitude":"37.7187606426","longitude":"126.8515574077","phone_number":"031-968-7611","market_hash_key":"-1"},{"market_uid":73,"pharmacy_name":"뉴코아약국","address":"경기도 고양시 일산동구 강촌로 157, 103호 (마두동, 서울코아)","latitude":"37.6535727188","longitude":"126.7909614241","phone_number":"070-7723-9559","market_hash_key":"-1"},{"market_uid":74,"pharmacy_name":"늘봄약국","address":"경기도 고양시 일산서구 중앙로 1557, 삼운트루아오피스텔 202(일부)호 (대화동)","latitude":"37.6751302030","longitude":"126.7485967828","phone_number":"031-994-1433","market_hash_key":"-1"},{"market_uid":75,"pharmacy_name":"늘씬엄마튼튼아이푸른솔한약국","address":"경기도 고양시 일산동구 중앙로1275번길 86-1, 205호 (장항동, 중앙 하이츠빌)","latitude":"37.6585472","longitude":"126.7677944","phone_number":"031-903-3311","market_hash_key":"-1"},{"market_uid":76,"pharmacy_name":"늘푸른약국","address":"경기도 고양시 덕양구 충경로 38, 303호 (행신동, 진일프라자)","latitude":"37.6150531","longitude":"126.8336798","phone_number":"031-971-9082","market_hash_key":"-1"},{"market_uid":77,"pharmacy_name":"능곡백제약국","address":"경기도 고양시 덕양구 행당로 9, 102호 (토당동)","latitude":"37.6198887","longitude":"126.8257853","phone_number":"031-971-8330","market_hash_key":"-1"},{"market_uid":78,"pharmacy_name":"능곡종로약국","address":"경기도 고양시 덕양구 지도로103번길 34 (토당동)","latitude":"37.6260542934","longitude":"126.8217380533","phone_number":"031-979-4503","market_hash_key":"-1"},{"market_uid":79,"pharmacy_name":"다나약국","address":"경기도 고양시 일산서구 중앙로 1564, 그린월드 403-1호 (대화동)","latitude":"37.6761833","longitude":"126.7481284","phone_number":"031-921-8669","market_hash_key":"-1"},{"market_uid":80,"pharmacy_name":"다나온누리약국","address":"경기도 고양시 덕양구 화정로 47, 302호 (화정동, 동원텔)","latitude":"37.6351054","longitude":"126.8313685","phone_number":"","market_hash_key":"-1"},{"market_uid":81,"pharmacy_name":"다나을약국","address":"경기도 고양시 일산서구 중앙로 1426, 일송노브레스 409호 (주엽동)","latitude":"37.6701848","longitude":"126.7619090","phone_number":"031-911-7151","market_hash_key":"-1"},{"market_uid":82,"pharmacy_name":"다사랑약국","address":"경기도 고양시 덕양구 도래울로 103 (도내동)","latitude":"37.6347151","longitude":"126.8712028","phone_number":"031-815-2088","market_hash_key":"-1"},{"market_uid":83,"pharmacy_name":"다원약국","address":"경기도 고양시 일산동구 정발산로 39, 103호 (장항동, 대양빌딩)","latitude":"37.6572691","longitude":"126.7730454","phone_number":"031-901-0121","market_hash_key":"-1"},{"market_uid":84,"pharmacy_name":"다인온누리약국","address":"경기도 고양시 덕양구 화신로 273, 101,102호 (화정동, 명지프라자)","latitude":"37.6305276","longitude":"126.8307673","phone_number":"031-972-2347","market_hash_key":"-1"},{"market_uid":85,"pharmacy_name":"다인파랑새약국","address":"경기도 고양시 일산동구 강송로 49, 윈스턴파크 1층 103,104호 (백석동)","latitude":"37.6447721","longitude":"126.7920401","phone_number":"905-0035","market_hash_key":"-1"},{"market_uid":86,"pharmacy_name":"다정약국","address":"경기도 고양시 일산서구 일청로 15-1, 1층 (일산동)","latitude":"37.6858242","longitude":"126.7702364","phone_number":"031-977-4913","market_hash_key":"-1"},{"market_uid":87,"pharmacy_name":"단비약국","address":"경기도 고양시 일산서구 대산로 162, 문촌마을2단지 상가동 102호 (주엽동)","latitude":"37.6768216","longitude":"126.7603006","phone_number":"031-916-3470","market_hash_key":"-1"},{"market_uid":88,"pharmacy_name":"달빛이화약국","address":"경기도 고양시 덕양구 화중로 217, 114호 (화정동, 달빛마을라이프상가)","latitude":"37.6467741","longitude":"126.8321462","phone_number":"966-6111","market_hash_key":"-1"},{"market_uid":89,"pharmacy_name":"담우약국","address":"경기도 고양시 덕양구 삼송로 178 (삼송동)","latitude":"37.6530187","longitude":"126.8936191","phone_number":"02-381-5300","market_hash_key":"-1"},{"market_uid":90,"pharmacy_name":"대영약국","address":"경기도 고양시 일산동구 무궁화로 18, 104호 (장항동, 남정시티프라자)","latitude":"37.6616266","longitude":"126.7668780","phone_number":"031-905-7388","market_hash_key":"-1"},{"market_uid":91,"pharmacy_name":"대원약국","address":"경기도 고양시 일산서구 중앙로 1426, 105,106호 (주엽동, 일송노블레스)","latitude":"37.6701848","longitude":"126.7619090","phone_number":"031 911-8301","market_hash_key":"-1"},{"market_uid":92,"pharmacy_name":"대종약국","address":"경기도 고양시 덕양구 마상로154번길 16 (성사동)","latitude":"37.6579915","longitude":"126.8387275","phone_number":"031-962-6197","market_hash_key":"-1"},{"market_uid":93,"pharmacy_name":"대지약국","address":"경기도 고양시 일산서구 대산로 55, 104호 (주엽동, 강선마을상가동)","latitude":"37.6707142","longitude":"126.7698189","phone_number":"031-925-1229","market_hash_key":"-1"},{"market_uid":94,"pharmacy_name":"대학약국","address":"경기도 고양시 덕양구 통일로 774 (관산동)","latitude":"37.6880177","longitude":"126.8645103","phone_number":"031-963-4645","market_hash_key":"-1"},{"market_uid":95,"pharmacy_name":"대한약국","address":"경기도 고양시 일산서구 호수로856번길 74-7, 1층 (대화동)","latitude":"37.6734309","longitude":"126.7502688","phone_number":"031 923 5400","market_hash_key":"-1"},{"market_uid":96,"pharmacy_name":"대화건강약국","address":"경기도 고양시 일산서구 중앙로 1563, 103호 (대화동, 영림브레아)","latitude":"37.6754350","longitude":"126.7479042","phone_number":"031 911 0381","market_hash_key":"-1"},{"market_uid":97,"pharmacy_name":"대화마을약국","address":"경기도 고양시 일산서구 송포로 35, 117호 (대화동, 대륙종합상가)","latitude":"37.6694898","longitude":"126.7322717","phone_number":"031 917 4422","market_hash_key":"-1"},{"market_uid":98,"pharmacy_name":"대화약국","address":"경기도 고양시 일산서구 중앙로 1559, 씨티타워 103호 (대화동)","latitude":"37.6753454789","longitude":"126.7481539703","phone_number":"031 913 9295","market_hash_key":"-1"},{"market_uid":99,"pharmacy_name":"대화하이약국","address":"경기도 고양시 일산서구 중앙로 1576, 태진프라자 307호 (대화동)","latitude":"37.6765956016","longitude":"126.7471294998","phone_number":"031-994-7789","market_hash_key":"-1"},{"market_uid":100,"pharmacy_name":"더건강약국","address":"경기도 고양시 덕양구 통일로 760, 148호,179호 (관산동, 더퍼스트프라임상가)","latitude":"37.6877672","longitude":"126.8660300","phone_number":"031-963-3525","market_hash_key":"-1"},{"market_uid":101,"pharmacy_name":"더사랑약국","address":"경기도 고양시 일산동구 무궁화로 39, 삼라마이다스 2층 209호 (장항동)","latitude":"37.6634047","longitude":"126.7684364","phone_number":"031-911-9408","market_hash_key":"-1"},{"market_uid":102,"pharmacy_name":"덕양메디칼약국","address":"경기도 고양시 덕양구 백양로 51, 104호 (화정동)","latitude":"37.6302427","longitude":"126.8331243","phone_number":"031)938-1726","market_hash_key":"-1"},{"market_uid":103,"pharmacy_name":"덕진약국","address":"경기도 고양시 덕양구 유산길 10 (내유동)","latitude":"37.7254002","longitude":"126.8443411","phone_number":"031-962-8702","market_hash_key":"-1"},{"market_uid":104,"pharmacy_name":"도래울약국","address":"경기도 고양시 덕양구 도래울로 110, 테마시티 119호 (도내동)","latitude":"37.6348336","longitude":"126.8724262","phone_number":"031-967-7180","market_hash_key":"-1"},{"market_uid":105,"pharmacy_name":"도토리약국","address":"경기도 고양시 덕양구 세솔로 96, 1층 (삼송동)","latitude":"37.6524097","longitude":"126.8880334","phone_number":"02-381-8191","market_hash_key":"-1"},{"market_uid":106,"pharmacy_name":"동부약국","address":"경기도 고양시 덕양구 중앙로 547, 1층 (행신동, 비금빌딩)","latitude":"37.6226605","longitude":"126.8359281","phone_number":"031-974-0656","market_hash_key":"-1"},{"market_uid":107,"pharmacy_name":"동신약국","address":"경기도 고양시 덕양구 용현로 27, 103호 (행신동, 행신프라자)","latitude":"37.6151368","longitude":"126.8355711","phone_number":"031-972-3111","market_hash_key":"-1"},{"market_uid":108,"pharmacy_name":"동우약국","address":"경기도 고양시 덕양구 화신로260번길 57, 요진타워 305호 (화정동)","latitude":"37.6334945","longitude":"126.8326751","phone_number":"031-970-6318","market_hash_key":"-1"},{"market_uid":109,"pharmacy_name":"동원텔약국","address":"경기도 고양시 덕양구 화정로 47, 301호 (화정동, 동원텔)","latitude":"37.6351054","longitude":"126.8313685","phone_number":"031-815-8112","market_hash_key":"-1"},{"market_uid":110,"pharmacy_name":"동의샘물약국","address":"경기도 고양시 일산동구 대산로 30, 1층 (정발산동)","latitude":"37.6704598","longitude":"126.7732994","phone_number":"031-917-2028","market_hash_key":"-1"},{"market_uid":111,"pharmacy_name":"동희약국","address":"경기도 고양시 덕양구 통일로 752 (관산동)","latitude":"37.6874619","longitude":"126.8669262","phone_number":"031-963-8029","market_hash_key":"-1"},{"market_uid":112,"pharmacy_name":"두레약국","address":"경기도 고양시 일산동구 중앙로 1080, 207(일부)호 (백석동)","latitude":"37.6455165478","longitude":"126.7851829425","phone_number":"031-908-3875","market_hash_key":"-1"},{"market_uid":113,"pharmacy_name":"두리약국","address":"경기도 고양시 일산서구 일현로 53, 111호 (탄현동, 메디누리)","latitude":"37.6919633","longitude":"126.7630177","phone_number":"031 925 7582","market_hash_key":"-1"},{"market_uid":114,"pharmacy_name":"드림약국","address":"경기도 고양시 일산서구 강선로 59, 110~112호 (주엽동, 동신파크빌딩)","latitude":"37.6694598","longitude":"126.7642689","phone_number":"912-0308","market_hash_key":"-1"},{"market_uid":115,"pharmacy_name":"드림온누리약국","address":"경기도 고양시 일산동구 정발산로 15, 122호 (장항동, 드림월드프라자 )","latitude":"37.6564086","longitude":"126.7707135","phone_number":"905-5520","market_hash_key":"-1"},{"market_uid":116,"pharmacy_name":"드림팜 약국","address":"경기도 고양시 덕양구 백양로 79 (화정동, 이마트내 1층)","latitude":"37.6325765","longitude":"126.8333682","phone_number":"031-979-7210","market_hash_key":"-1"},{"market_uid":117,"pharmacy_name":"따뜻한약국","address":"경기도 고양시 일산동구 중앙로1275번길 64, 2(일부)층 (장항동, 홈플러스 일산점)","latitude":"37.6589637","longitude":"126.7688243","phone_number":"031-904-0642","market_hash_key":"-1"},{"market_uid":118,"pharmacy_name":"또바기약국","address":"경기도 고양시 덕양구 호국로790번길 17, 404호 (성사동, 영프라자)","latitude":"37.6561875","longitude":"126.8372583","phone_number":"031-965-1221","market_hash_key":"-1"},{"market_uid":119,"pharmacy_name":"뜨란약국","address":"경기도 고양시 일산동구 숲속마을1로 71, 109호 (풍동, 샘터17)","latitude":"37.6672647","longitude":"126.7996837","phone_number":"031-902-8975","market_hash_key":"-1"},{"market_uid":120,"pharmacy_name":"라라약국","address":"경기도 고양시 일산서구 중앙로 1493, 2층 2001-2호 (주엽동, 문촌마을 애비뉴상가 )","latitude":"37.6722960","longitude":"126.7546592","phone_number":"031-912-6104","market_hash_key":"-1"},{"market_uid":121,"pharmacy_name":"라인건강약국","address":"경기도 고양시 덕양구 권율대로 885, 태웅PLAZA 105호 (신원동)","latitude":"37.6632133","longitude":"126.8890368","phone_number":"02-381-2231","market_hash_key":"-1"},{"market_uid":122,"pharmacy_name":"레이킨스약국","address":"경기도 고양시 일산서구 호수로 817, 레이킨스몰 253호 (대화동)","latitude":"37.6679645069","longitude":"126.7513867788","phone_number":"070-4101-8318","market_hash_key":"-1"},{"market_uid":123,"pharmacy_name":"마두약국","address":"경기도 고양시 일산동구 중앙로 1172, 108호 (마두동, 그랜드프라자)","latitude":"37.6516574","longitude":"126.7783773","phone_number":"031-905-8913","market_hash_key":"-1"},{"market_uid":124,"pharmacy_name":"마두하나약국","address":"경기도 고양시 일산동구 중앙로 1195, 로스텔 103호 (장항동)","latitude":"37.6532214","longitude":"126.7764801","phone_number":"031-903-7750","market_hash_key":"-1"},{"market_uid":125,"pharmacy_name":"마두행복한약국","address":"경기도 고양시 일산동구 강석로 123, 71~73호 (마두동, 뉴삼창빌딩)","latitude":"37.6518022","longitude":"126.7787621","phone_number":"031-901-2203","market_hash_key":"-1"},{"market_uid":126,"pharmacy_name":"마이다스수약국","address":"경기도 고양시 덕양구 백양로 71, 204호 (화정동)","latitude":"37.6320271","longitude":"126.8334601","phone_number":"031)978-5557","market_hash_key":"-1"},{"market_uid":127,"pharmacy_name":"마트약국","address":"경기도 고양시 일산동구 중앙로 1124, 2(일부)층 (백석동, 이마트)","latitude":"37.6478809","longitude":"126.7823999","phone_number":"031-902-8485","market_hash_key":"-1"},{"market_uid":128,"pharmacy_name":"메디빌사랑약국","address":"경기도 고양시 일산서구 중앙로 1426, 일송노브레스 603-1호 (주엽동)","latitude":"37.6701848","longitude":"126.7619090","phone_number":"031-913-7575","market_hash_key":"-1"},{"market_uid":129,"pharmacy_name":"메디스약국","address":"경기도 고양시 덕양구 중앙로 452, 104,105호 (행신동, 메디스타워)","latitude":"37.6184657","longitude":"126.8451800","phone_number":"031)979-2277","market_hash_key":"-1"},{"market_uid":130,"pharmacy_name":"메디칼온누리약국","address":"경기도 고양시 일산동구 동국로 26 (식사동)","latitude":"37.6763778","longitude":"126.8075937","phone_number":"031-966-5670","market_hash_key":"-1"},{"market_uid":131,"pharmacy_name":"메디칼참사랑온누리약국","address":"경기도 고양시 일산동구 탄중로 316, 103호 (중산동, 솔샘프라자)","latitude":"37.6931231","longitude":"126.7801231","phone_number":"031-976-8341","market_hash_key":"-1"},{"market_uid":132,"pharmacy_name":"메디케어약국","address":"경기도 고양시 덕양구 동송로 20, 삼송농산물종합유통센터 2층 (동산동)","latitude":"37.6483296","longitude":"126.8991670","phone_number":"070-7717-8171","market_hash_key":"-1"},{"market_uid":133,"pharmacy_name":"메디팜글라라약국","address":"경기도 고양시 덕양구 토당로12번길 42 (토당동)","latitude":"37.6194179","longitude":"126.8242347","phone_number":"031-972-1247","market_hash_key":"-1"},{"market_uid":134,"pharmacy_name":"메디팜다나약국","address":"경기도 고양시 덕양구 중앙로 466, 103호 (행신동, 대광빌딩)","latitude":"37.6188601","longitude":"126.8437294","phone_number":"031-971-4357","market_hash_key":"-1"},{"market_uid":135,"pharmacy_name":"메디팜세진약국","address":"경기도 고양시 일산서구 일현로 123, 105,106호 (탄현동, 휴엔코아)","latitude":"37.6978513","longitude":"126.7653459","phone_number":"031 917 5924","market_hash_key":"-1"},{"market_uid":136,"pharmacy_name":"메디팜우일약국","address":"경기도 고양시 덕양구 마상로154번길 68, 1층 (성사동, 금강빌딩)","latitude":"37.6564663","longitude":"126.8368950","phone_number":"","market_hash_key":"-1"},{"market_uid":137,"pharmacy_name":"메디팜일산백약국","address":"경기도 고양시 일산서구 주화로 180, 1층 105호 (대화동, 월드메르디앙)","latitude":"37.6744917","longitude":"126.7491883","phone_number":"031 921 4555","market_hash_key":"-1"},{"market_uid":138,"pharmacy_name":"메디팜일산약국","address":"경기도 고양시 일산동구 백석로108번길 68-11, 1층 일부호 (백석동)","latitude":"37.6463026","longitude":"126.7914013","phone_number":"031-908-4555","market_hash_key":"-1"},{"market_uid":139,"pharmacy_name":"메디팜장계약국","address":"경기도 고양시 덕양구 화중로 220, 104호 (화정동, 부영상가)","latitude":"37.6464651","longitude":"126.8365660","phone_number":"031-968-1297","market_hash_key":"-1"},{"market_uid":140,"pharmacy_name":"메디팜행신약국","address":"경기도 고양시 덕양구 무원로 63, 103호 (행신동, 무원마을10단지아파트)","latitude":"37.6181928","longitude":"126.8304899","phone_number":"031-970-4073","market_hash_key":"-1"},{"market_uid":141,"pharmacy_name":"명보약국","address":"경기도 고양시 덕양구 중앙로472번길 73 (행신동,1층)","latitude":"37.6223021","longitude":"126.8438693","phone_number":"938-9600","market_hash_key":"-1"},{"market_uid":142,"pharmacy_name":"모두의약국","address":"경기도 고양시 일산서구 일산로 576, 106호 (일산동, 대성프라자)","latitude":"37.6794875807","longitude":"126.7642708822","phone_number":"070-7579-5085","market_hash_key":"-1"},{"market_uid":143,"pharmacy_name":"무지개약국","address":"경기도 고양시 덕양구 호국로 787, 101호 (주교동, 원당메디칼프라자)","latitude":"37.6565187","longitude":"126.8357616","phone_number":"031-963-3357","market_hash_key":"-1"},{"market_uid":144,"pharmacy_name":"문촌약국","address":"경기도 고양시 일산서구 중앙로 1493, 2061호 (주엽동, 문촌마을12단지아파트)","latitude":"37.6722960","longitude":"126.7546592","phone_number":"031-916-6119","market_hash_key":"-1"},{"market_uid":145,"pharmacy_name":"미담한약국","address":"경기도 고양시 일산서구 일산로 614, 후곡마을6단지 상가동 106호 (일산동)","latitude":"37.6816254","longitude":"126.7611012","phone_number":"031-925-2570","market_hash_key":"-1"},{"market_uid":146,"pharmacy_name":"미래로약국","address":"경기도 고양시 일산서구 장자길118번길 122, 102호 (덕이동)","latitude":"37.7001007","longitude":"126.7467085","phone_number":"031-919-4846","market_hash_key":"-1"},{"market_uid":147,"pharmacy_name":"미래열린약국","address":"경기도 고양시 덕양구 신원로 32, 107,108호 (신원동, 미래메디컬빌딩)","latitude":"37.6634654","longitude":"126.8888097","phone_number":"02-371-1371","market_hash_key":"-1"},{"market_uid":148,"pharmacy_name":"미래온누리약국","address":"경기도 고양시 덕양구 토당로 115, 금호프라자 1층 119,125,126,127호 (토당동)","latitude":"37.6254973","longitude":"126.8169817","phone_number":"031-938-0355","market_hash_key":"-1"},{"market_uid":149,"pharmacy_name":"미래팜약국","address":"경기도 고양시 일산서구 원일로 126, 105호 (일산동, 원플라자)","latitude":"37.6847900","longitude":"126.7758174","phone_number":"031 976-9465","market_hash_key":"-1"},{"market_uid":150,"pharmacy_name":"미르약국","address":"경기도 고양시 일산동구 중앙로 1065, 1층 (백석동, 일산 새빛 안과)","latitude":"37.6441570","longitude":"126.7856854","phone_number":"031-932-2033","market_hash_key":"-1"},{"market_uid":151,"pharmacy_name":"미성단아한약국","address":"경기도 고양시 일산서구 강성로 271, 203호 (대화동)","latitude":"37.6770727","longitude":"126.7469578","phone_number":"070-7889-7432","market_hash_key":"-1"},{"market_uid":152,"pharmacy_name":"미소가 가득한 약국","address":"경기도 고양시 일산서구 중앙로 1426 (주엽동,일송노블레스빌딩 510호)","latitude":"37.6701848","longitude":"126.7619090","phone_number":"031)9191-913","market_hash_key":"-1"},{"market_uid":153,"pharmacy_name":"미소약국","address":"경기도 고양시 일산동구 중앙로 1317, 1층 (장항동, 일산복합빌딩 )","latitude":"37.6628219","longitude":"126.7699002","phone_number":"031-810-9891","market_hash_key":"-1"},{"market_uid":154,"pharmacy_name":"미약국","address":"경기도 고양시 덕양구 토당로 54, 충정회관 1(일부)층 (토당동)","latitude":"37.6206643","longitude":"126.8203692","phone_number":"031-971-2033","market_hash_key":"-1"},{"market_uid":155,"pharmacy_name":"믿음약국","address":"경기도 고양시 덕양구 용현로53번길 52 (행신동)","latitude":"37.6185771","longitude":"126.8345440","phone_number":"031)972-2319","market_hash_key":"-1"},{"market_uid":156,"pharmacy_name":"바로약국","address":"경기도 고양시 일산동구 일산로 451, 1층 (정발산동)","latitude":"37.6734573","longitude":"126.7766000","phone_number":"031-919-3710","market_hash_key":"-1"},{"market_uid":157,"pharmacy_name":"바로팜약국","address":"경기도 고양시 덕양구 화정로 53-1, 1층 104호 (화정동, 글로리아프라자)","latitude":"37.6353861","longitude":"126.8323422","phone_number":"031-966-0337","market_hash_key":"-1"},{"market_uid":158,"pharmacy_name":"박약국","address":"경기도 고양시 일산서구 대화1로 76, 1층 108호 (대화동, 연세프라자)","latitude":"37.6710727","longitude":"126.7349976","phone_number":"031 911-8282","market_hash_key":"-1"},{"market_uid":159,"pharmacy_name":"밝은미소약국","address":"경기도 고양시 덕양구 화신로272번길 58, 영프라자빌딩 405호 (화정동)","latitude":"37.6335747907","longitude":"126.8320631740","phone_number":"031-972-7512","market_hash_key":"-1"},{"market_uid":160,"pharmacy_name":"밝은미소약국","address":"경기도 고양시 덕양구 화신로272번길 58, 영프라자빌딩 405호 (화정동)","latitude":"37.6335747","longitude":"126.8320631","phone_number":"972-7512","market_hash_key":"-1"},{"market_uid":161,"pharmacy_name":"밝은양지온누리약국","address":"경기도 고양시 덕양구 읍내로6번길 1-8 (고양동)","latitude":"37.7008769","longitude":"126.9025069","phone_number":"964-0396","market_hash_key":"-1"},{"market_uid":162,"pharmacy_name":"밝은온누리약국","address":"경기도 고양시 일산서구 가좌3로 29, 1층 (가좌동)","latitude":"37.6872616","longitude":"126.7189881","phone_number":"031-925-7505","market_hash_key":"-1"},{"market_uid":163,"pharmacy_name":"백두약국","address":"경기도 고양시 일산서구 일현로 56, 103호 (탄현동, 삼정프라자)","latitude":"37.6919017","longitude":"126.7637435","phone_number":"031 922 9770","market_hash_key":"-1"},{"market_uid":164,"pharmacy_name":"백석은혜약국","address":"경기도 고양시 일산동구 일산로 46, 311호 (백석동, 남정씨티프라자3차)","latitude":"37.6422689","longitude":"126.7878437","phone_number":"031-908-4573","market_hash_key":"-1"},{"market_uid":165,"pharmacy_name":"백세약국","address":"경기도 고양시 일산서구 일중로 45, 가동 1층 일부호 (일산동)","latitude":"37.6836257","longitude":"126.7747666","phone_number":"031-975-9002","market_hash_key":"-1"},{"market_uid":166,"pharmacy_name":"벨라시타약국","address":"경기도 고양시 일산동구 강송로 33, 지하1층 일부호 (백석동, 일산요진와이시티)","latitude":"37.6423587337","longitude":"126.7926815021","phone_number":"031-849-5780","market_hash_key":"-1"},{"market_uid":167,"pharmacy_name":"벽제하나로약국","address":"경기도 고양시 덕양구 통일로 797 (관산동)","latitude":"37.6884921","longitude":"126.8618678","phone_number":"031-969-8908","market_hash_key":"-1"},{"market_uid":168,"pharmacy_name":"별빛약국","address":"경기도 고양시 덕양구 삼송로 88, 오성프라자 103호 (삼송동)","latitude":"37.6506036","longitude":"126.8838661","phone_number":"02-381-9354","market_hash_key":"-1"},{"market_uid":169,"pharmacy_name":"별약국","address":"경기도 고양시 덕양구 삼송로 12, 112호 (원흥동, 반도유스퀘어)","latitude":"37.6496036","longitude":"126.8753125","phone_number":"923-5443","market_hash_key":"-1"},{"market_uid":170,"pharmacy_name":"보리수약국","address":"경기도 고양시 일산동구 동국로 30 (식사동, 1층)","latitude":"37.6766845","longitude":"126.8077856","phone_number":"031-965-2126","market_hash_key":"-1"},{"market_uid":171,"pharmacy_name":"보명약국","address":"경기도 고양시 덕양구 혜음로 9 (고양동)","latitude":"37.7014616","longitude":"126.9015082","phone_number":"031-962-9625","market_hash_key":"-1"},{"market_uid":172,"pharmacy_name":"보성약국","address":"경기도 고양시 덕양구 삼송로 189-7 (삼송동)","latitude":"37.6538575","longitude":"126.8946491","phone_number":"02-381-8484","market_hash_key":"-1"},{"market_uid":173,"pharmacy_name":"보영약국","address":"경기도 고양시 일산서구 대화2로 137, 상가동 104호 (대화동, 대화마을)","latitude":"37.6737693","longitude":"126.7361895","phone_number":"031-911-8961","market_hash_key":"-1"},{"market_uid":174,"pharmacy_name":"보원약국","address":"경기도 고양시 일산서구 원일로 69, 씨티프라자 123호 (일산동)","latitude":"37.6867340","longitude":"126.7701542","phone_number":"031 977 1919","market_hash_key":"-1"},{"market_uid":175,"pharmacy_name":"봄사랑약국","address":"경기도 고양시 일산서구 중앙로 1568, 하성프라자 101,102호 (대화동)","latitude":"37.6762908","longitude":"126.7478786","phone_number":"031-913-1021","market_hash_key":"-1"},{"market_uid":176,"pharmacy_name":"봄약국","address":"경기도 고양시 일산동구 장백로 56, 204-2호 (백석동, 크리스탈빌딩)","latitude":"37.6428796","longitude":"126.7867655","phone_number":"031-925-7890","market_hash_key":"-1"},{"market_uid":177,"pharmacy_name":"뿌리한약국","address":"경기도 고양시 일산서구 경의로 871, 1층 1호 (덕이동)","latitude":"37.6951815","longitude":"126.7594584","phone_number":"031-918-4210","market_hash_key":"-1"},{"market_uid":178,"pharmacy_name":"사과나무약국","address":"경기도 고양시 일산서구 중앙로 1573, 107호 (대화동, 킨텍스프라자)","latitude":"37.6758744","longitude":"126.7469619","phone_number":"031 912 5522","market_hash_key":"-1"},{"market_uid":179,"pharmacy_name":"사랑가득무지개약국","address":"경기도 고양시 덕양구 중앙로 438, 105호 (행신동, 아름터프라자)","latitude":"37.6179181","longitude":"126.8466763","phone_number":"031-973-7582","market_hash_key":"-1"},{"market_uid":180,"pharmacy_name":"사랑약국","address":"경기도 고양시 덕양구 토당로 52, 304-2호 (토당동, 능곡프라자)","latitude":"37.6204934","longitude":"126.8205735","phone_number":"031-970-0072","market_hash_key":"-1"},{"market_uid":181,"pharmacy_name":"사랑약국","address":"경기도 고양시 일산서구 후곡로 19, 304호 (일산동, 평화프라자 )","latitude":"37.6792693","longitude":"126.7632626","phone_number":"031-922-2646","market_hash_key":"-1"},{"market_uid":182,"pharmacy_name":"사랑인약국","address":"경기도 고양시 덕양구 혜음로 30, 202-1호 (고양동, 삼성상가)","latitude":"37.7027148","longitude":"126.9024477","phone_number":"968-3986","market_hash_key":"-1"},{"market_uid":183,"pharmacy_name":"삼보약국","address":"경기도 고양시 덕양구 고양대로1384번길 6, 116호 (성사동, 삼보상가)","latitude":"37.6535725","longitude":"126.8357342","phone_number":"031-967-9393","market_hash_key":"-1"},{"market_uid":184,"pharmacy_name":"삼성약국","address":"경기도 고양시 덕양구 중앙로558번길 13, 102호 (행신동, 능곡 삼성프라자)","latitude":"37.6243001","longitude":"126.8357885","phone_number":"979-7366","market_hash_key":"-1"},{"market_uid":185,"pharmacy_name":"삼송메디칼약국","address":"경기도 고양시 덕양구 권율대로 896-15, 102,103호 (신원동)","latitude":"37.6625220197","longitude":"126.8915652121","phone_number":"02-381-3033","market_hash_key":"-1"},{"market_uid":186,"pharmacy_name":"삼송스타약국","address":"경기도 고양시 덕양구 고양대로 1955, 지하2층 (동산동, 스타필드고양)","latitude":"37.6466048","longitude":"126.8947843","phone_number":"02)2063-9100","market_hash_key":"-1"},{"market_uid":187,"pharmacy_name":"삼송약국","address":"경기도 고양시 덕양구 권율대로 907, 1층 (신원동, 케이엔빌딩)","latitude":"37.6646025","longitude":"126.8908367","phone_number":"02-381-2003","market_hash_key":"-1"},{"market_uid":188,"pharmacy_name":"삼송역 3번출구 약국","address":"경기도 고양시 덕양구 동송로 69, 105호 (삼송동)","latitude":"37.6525786","longitude":"126.8951722","phone_number":"02-381-4532","market_hash_key":"-1"},{"market_uid":189,"pharmacy_name":"삼송제일약국","address":"경기도 고양시 덕양구 권율대로 886, 102호 (신원동, 호평프라자)","latitude":"37.6626552328","longitude":"126.8895363305","phone_number":"070-8861-0009","market_hash_key":"-1"},{"market_uid":190,"pharmacy_name":"삼송프라자약국","address":"경기도 고양시 덕양구 신원로 40, 삼송시티프라자 107호 (신원동)","latitude":"37.6638794","longitude":"126.8884237","phone_number":"070-7591-3695","market_hash_key":"-1"},{"market_uid":191,"pharmacy_name":"삼육오행운약국","address":"경기도 고양시 일산서구 일중로 46, 106-107호 (일산동)","latitude":"37.6835458","longitude":"126.7753790","phone_number":"031 975 2511","market_hash_key":"-1"},{"market_uid":192,"pharmacy_name":"삼정약국","address":"경기도 고양시 덕양구 중앙로 478, 103호 (행신동, 행신미원프라자)","latitude":"37.6193272","longitude":"126.8426750","phone_number":"031-979-7003","market_hash_key":"-1"},{"market_uid":193,"pharmacy_name":"삼층약국","address":"경기도 고양시 덕양구 충경로 52, 306호 (행신동, 남정씨티프라자)","latitude":"37.6151365","longitude":"126.8353220","phone_number":"031-979-4986","market_hash_key":"-1"},{"market_uid":194,"pharmacy_name":"새능곡메디슨약국","address":"경기도 고양시 덕양구 지도로103번길 1, 101호 (토당동)","latitude":"37.6260840","longitude":"126.8235164","phone_number":"031-979-0930","market_hash_key":"-1"},{"market_uid":195,"pharmacy_name":"새명약국","address":"경기도 고양시 일산동구 중앙로 1036, 지하2층 (백석동, 고양종합양터미널)","latitude":"37.6431641","longitude":"126.7896540","phone_number":"031-936-7671","market_hash_key":"-1"},{"market_uid":196,"pharmacy_name":"새봄약국","address":"경기도 고양시 일산서구 일현로 140, 큰마을대림현대아파트 101,102호 (탄현동)","latitude":"37.7008508311","longitude":"126.7649848305","phone_number":"925-7890","market_hash_key":"-1"},{"market_uid":197,"pharmacy_name":"새빛온누리약국","address":"경기도 고양시 일산서구 가좌1로 10, 상가동 104호 (가좌동, 가좌마을5단지아파트)","latitude":"37.6909594","longitude":"126.7205726","phone_number":"031-921-9788","market_hash_key":"-1"},{"market_uid":198,"pharmacy_name":"새사랑약국","address":"경기도 고양시 일산서구 중앙로 1416, 201-1호 (주엽동, 한사랑빌딩)","latitude":"37.6697093","longitude":"126.7629307","phone_number":"031 919 7948","market_hash_key":"-1"},{"market_uid":199,"pharmacy_name":"새서울약국","address":"경기도 고양시 덕양구 지도로 47, 101호 (토당동, 보림빌딩)","latitude":"37.6211927","longitude":"126.8241738","phone_number":"938-4510","market_hash_key":"-1"},{"market_uid":200,"pharmacy_name":"새은혜약국","address":"경기도 고양시 일산서구 원일로 81, 1층 (일산동)","latitude":"37.6860694","longitude":"126.7712333","phone_number":"031-977-3113","market_hash_key":"-1"},{"market_uid":201,"pharmacy_name":"새일산약국","address":"경기도 고양시 일산동구 강송로 179, 102호 (마두동, 신일산클리닉빌딩)","latitude":"37.6542703","longitude":"126.7832082","phone_number":"031-902-8642","market_hash_key":"-1"},{"market_uid":202,"pharmacy_name":"새천년약손약국","address":"경기도 고양시 덕양구 토당로 133-8 (토당동)","latitude":"37.6270210","longitude":"126.8177029","phone_number":"031-974-1678","market_hash_key":"-1"},{"market_uid":203,"pharmacy_name":"새한빛약국","address":"경기도 고양시 덕양구 화신로272번길 58, 411호 (화정동, 영프라자)","latitude":"37.6335747","longitude":"126.8320631","phone_number":"972-6308","market_hash_key":"-1"},{"market_uid":204,"pharmacy_name":"새한솔약국","address":"경기도 고양시 덕양구 충경로 87, 대명상가 2층 (행신동)","latitude":"37.6159995","longitude":"126.8403489","phone_number":"031-971-1559","market_hash_key":"-1"},{"market_uid":205,"pharmacy_name":"새화정약국","address":"경기도 고양시 덕양구 화정로 53, 401호 (화정동, 새롬프라자)","latitude":"37.6351061","longitude":"126.8318444","phone_number":"031-814-8133","market_hash_key":"-1"},{"market_uid":206,"pharmacy_name":"새희망약국","address":"경기도 고양시 일산동구 일산로 324, 101, 102호 (마두동, 서오능상가조합)","latitude":"37.6643545","longitude":"126.7845385","phone_number":"031-901-4922","market_hash_key":"-1"},{"market_uid":207,"pharmacy_name":"샘물약국","address":"경기도 고양시 일산동구 일산로 240, 1층 (마두동, 백마프라자)","latitude":"37.6575776","longitude":"126.7885475","phone_number":"031-905-7436","market_hash_key":"-1"},{"market_uid":208,"pharmacy_name":"샘약국","address":"경기도 고양시 덕양구 향기로 14, 정성프라자 110호 (향동동)","latitude":"","longitude":"","phone_number":"02-3158-3780","market_hash_key":"-1"},{"market_uid":209,"pharmacy_name":"샘터온누리약국","address":"경기도 고양시 일산동구 하늘마을1로 2, 107호 (중산동, 풍산프라자)","latitude":"37.6744300","longitude":"126.7859599","phone_number":"031-976-3105","market_hash_key":"-1"},{"market_uid":210,"pharmacy_name":"생생약국","address":"경기도 고양시 덕양구 은빛로 41, 102호 (화정동, 대경프라자)","latitude":"37.6380801","longitude":"126.8324040","phone_number":"031-966-0138","market_hash_key":"-1"},{"market_uid":211,"pharmacy_name":"생생온누리약국","address":"경기도 고양시 일산동구 정발산로 43-20, 118,119(일부)호 (장항동, 센트럴프라자)","latitude":"37.6582698","longitude":"126.7733483","phone_number":"031-902-4938","market_hash_key":"-1"},{"market_uid":212,"pharmacy_name":"서우약국","address":"경기도 고양시 덕양구 능곡로 3 (토당동)","latitude":"37.6211319","longitude":"126.8197677","phone_number":"031-972-8764","market_hash_key":"-1"},{"market_uid":213,"pharmacy_name":"서울드림약국","address":"경기도 고양시 일산동구 고봉로 20-21, 119호 (장항동, 양우로데오랜드)","latitude":"37.6636873","longitude":"126.7656021","phone_number":"031-915-1199","market_hash_key":"-1"},{"market_uid":214,"pharmacy_name":"서정약국","address":"경기도 고양시 덕양구 서정마을로 5, 104호 (행신동)","latitude":"37.6183599","longitude":"126.8469246","phone_number":"938-3200","market_hash_key":"-1"},{"market_uid":215,"pharmacy_name":"서현약국","address":"경기도 고양시 일산서구 중앙로 1448, 1층 일부호 (주엽동)","latitude":"37.6710724","longitude":"126.7598206","phone_number":"031-911-8810","market_hash_key":"-1"},{"market_uid":216,"pharmacy_name":"선약국","address":"경기도 고양시 덕양구 은빛로29번길 36 (화정동)","latitude":"37.6394937","longitude":"126.8317890","phone_number":"968-4265","market_hash_key":"-1"},{"market_uid":217,"pharmacy_name":"성보온누리약국","address":"경기도 고양시 덕양구 호국로 851, 103호 (성사동)","latitude":"37.6607960","longitude":"126.8405686","phone_number":"966-3393","market_hash_key":"-1"},{"market_uid":218,"pharmacy_name":"성심약국","address":"경기도 고양시 일산동구 중앙로 1059, 102호 (백석동, ISD빌딩)","latitude":"37.6438514","longitude":"126.7861282","phone_number":"031-903-6832","market_hash_key":"-1"},{"market_uid":219,"pharmacy_name":"성원약국","address":"경기도 고양시 일산동구 중앙로 1080, 108호 (백석동, 남정골드프라자)","latitude":"37.6455165","longitude":"126.7851829","phone_number":"031-901-8544","market_hash_key":"-1"},{"market_uid":220,"pharmacy_name":"성지약국","address":"경기도 고양시 덕양구 화신로272번길 67, 5층 (화정동, 장군빌딩)","latitude":"37.6338532","longitude":"126.8314847","phone_number":"031-817-0811","market_hash_key":"-1"},{"market_uid":221,"pharmacy_name":"세솔약국","address":"경기도 고양시 덕양구 권율대로 893, 108호 (신원동, 파스텔시티1차)","latitude":"37.6635202","longitude":"126.8896483","phone_number":"02-371-2408","market_hash_key":"-1"},{"market_uid":222,"pharmacy_name":"세원약국","address":"경기도 고양시 덕양구 화수로14번길 52 (화정동)","latitude":"37.6425183","longitude":"126.8299805","phone_number":"031-966-0838","market_hash_key":"-1"},{"market_uid":223,"pharmacy_name":"세일약국","address":"경기도 고양시 덕양구 화랑로 20-2 (화전동)","latitude":"37.6006675","longitude":"126.8714553","phone_number":"02-3158-5024","market_hash_key":"-1"},{"market_uid":224,"pharmacy_name":"세정약국","address":"경기도 고양시 일산동구 장백로 172, 금강프라자 201(일부)호 (장항동)","latitude":"37.6501605","longitude":"126.7777132","phone_number":"031-932-1814","market_hash_key":"-1"},{"market_uid":225,"pharmacy_name":"세진약국","address":"경기도 고양시 일산서구 산현로 15, 무광프라자 306-1호 (탄현동)","latitude":"37.6894857","longitude":"126.7630144","phone_number":"070-4132-5924","market_hash_key":"-1"},{"market_uid":226,"pharmacy_name":"센타약국","address":"경기도 고양시 일산동구 일산로 324, 103호 (마두동, 서오능상가)","latitude":"37.6643545","longitude":"126.7845385","phone_number":"031-906-7412","market_hash_key":"-1"},{"market_uid":227,"pharmacy_name":"소만약국","address":"경기도 고양시 덕양구 충경로 96, 101호 (행신동, 소만빌딩)","latitude":"37.6151344","longitude":"126.8402942","phone_number":"970-0905","market_hash_key":"-1"},{"market_uid":228,"pharmacy_name":"소망약국","address":"경기도 고양시 일산서구 강선로 152, 105호 (일산동, 두레빌딩)","latitude":"37.6764083","longitude":"126.7697897","phone_number":"031 916 2737","market_hash_key":"-1"},{"market_uid":229,"pharmacy_name":"소영약국","address":"경기도 고양시 덕양구 토당로 52, 205호 (토당동, 능곡역프라자)","latitude":"37.6204934","longitude":"126.8205735","phone_number":"031-979-6809","market_hash_key":"-1"},{"market_uid":230,"pharmacy_name":"솔벗약국","address":"경기도 고양시 일산동구 중앙로 1194, 103호 (마두동, 금강프라자)","latitude":"37.6534662","longitude":"126.7772613","phone_number":"031-905-0377","market_hash_key":"-1"},{"market_uid":231,"pharmacy_name":"송약국","address":"경기도 고양시 덕양구 무원로6번길 20, M타워 101호 (행신동)","latitude":"37.6133322093","longitude":"126.8336498128","phone_number":"031-972-7482","market_hash_key":"-1"},{"market_uid":232,"pharmacy_name":"수생약국","address":"경기도 고양시 덕양구 원당로33번길 30 (주교동)","latitude":"37.6572685","longitude":"126.8308756","phone_number":"031-966-0920","market_hash_key":"-1"},{"market_uid":233,"pharmacy_name":"수약국","address":"경기도 고양시 덕양구 행신로 151, 3층 (행신동, 양일빌딩)","latitude":"37.6193572","longitude":"126.8319597","phone_number":"031-978-7582","market_hash_key":"-1"},{"market_uid":234,"pharmacy_name":"수정약국","address":"경기도 고양시 덕양구 충장로 140, 303동 (행신동, 썬프라자)","latitude":"37.6246325","longitude":"126.8351534","phone_number":"031-971-1242","market_hash_key":"-1"},{"market_uid":235,"pharmacy_name":"숲속약국","address":"경기도 고양시 일산동구 숲속마을로 22, 103호 (풍동, 진넥스블루오션)","latitude":"37.6672395","longitude":"126.8007379","phone_number":"031-903-6565","market_hash_key":"-1"},{"market_uid":236,"pharmacy_name":"스마일약국","address":"경기도 고양시 일산서구 호수로 817, 레이킨스몰 2층 242호 (대화동)","latitude":"37.6679645","longitude":"126.7513867","phone_number":"031-925-7036","market_hash_key":"-1"},{"market_uid":237,"pharmacy_name":"스카이약국","address":"경기도 고양시 덕양구 화중로 66, 1층 (화정동, 롯데마트)","latitude":"37.6328886","longitude":"126.8310678","phone_number":"070-4139-3902","market_hash_key":"-1"},{"market_uid":238,"pharmacy_name":"시민약국","address":"경기도 고양시 일산동구 고양대로 762, 104호 (중산동, 하늘빌딩)","latitude":"37.6817902","longitude":"126.7807691","phone_number":"031-975-1712","market_hash_key":"-1"},{"market_uid":239,"pharmacy_name":"시원약국","address":"경기도 고양시 일산서구 일산로 523, 보성상가 103호 (일산동)","latitude":"37.6765967","longitude":"126.7693811","phone_number":"031-911-2137","market_hash_key":"-1"},{"market_uid":240,"pharmacy_name":"시티약국","address":"경기도 고양시 일산동구 중앙로 1172, 412호 (마두동, 그랜드프라자)","latitude":"37.6516574","longitude":"126.7783773","phone_number":"031-905-5599","market_hash_key":"-1"},{"market_uid":241,"pharmacy_name":"신도시약국","address":"경기도 고양시 일산동구 강송로74번길 8-18, 1층 (백석동)","latitude":"37.6462751","longitude":"126.7910954","phone_number":"031-907-6262","market_hash_key":"-1"},{"market_uid":242,"pharmacy_name":"신성약국","address":"경기도 고양시 덕양구 동산2로 1, 104호 (동산동, 현대프라자)","latitude":"37.6447406","longitude":"126.8861190","phone_number":"02-582-0011","market_hash_key":"-1"},{"market_uid":243,"pharmacy_name":"신세계약국","address":"경기도 고양시 일산서구 중앙로 1574, 102호 (대화동, 월드프라자)","latitude":"37.6764880","longitude":"126.7473792","phone_number":"031-911-2933","market_hash_key":"-1"},{"market_uid":244,"pharmacy_name":"신일산약국","address":"경기도 고양시 일산서구 일중로 92, 3호 (일산동)","latitude":"37.6876534","longitude":"126.7749583","phone_number":"031-977-1335","market_hash_key":"-1"},{"market_uid":245,"pharmacy_name":"신일산희망약국","address":"경기도 고양시 일산동구 중앙로 1189, 203-1호 (장항동, GM굿모닝 법조타운)","latitude":"37.6526904","longitude":"126.7767650","phone_number":"031-906-2458","market_hash_key":"-1"},{"market_uid":246,"pharmacy_name":"신정문약국","address":"경기도 고양시 덕양구 화수로14번길 62 (화정동)","latitude":"37.6420225","longitude":"126.8297664","phone_number":"962-3035","market_hash_key":"-1"},{"market_uid":247,"pharmacy_name":"신중앙약국","address":"경기도 고양시 덕양구 중앙로 550, 104호 (행신동, 삼일프라자)","latitude":"37.6234177","longitude":"126.8361756","phone_number":"973-6630","market_hash_key":"-1"},{"market_uid":248,"pharmacy_name":"아름다운약국","address":"경기도 고양시 일산동구 중산로 253, 106,107호 (중산동)","latitude":"37.6950151","longitude":"126.7801288","phone_number":"031-976-9537","market_hash_key":"-1"},{"market_uid":249,"pharmacy_name":"아림약국","address":"경기도 고양시 덕양구 지도로35번길 61 (토당동)","latitude":"37.6208005","longitude":"126.8210711","phone_number":"031-974-7634","market_hash_key":"-1"},{"market_uid":250,"pharmacy_name":"아이맘약국","address":"경기도 고양시 덕양구 중앙로 628, 304호 (화정동, 예일프라자)","latitude":"37.6274435","longitude":"126.8288713","phone_number":"070-8872-3222","market_hash_key":"-1"},{"market_uid":251,"pharmacy_name":"아이사랑약국","address":"경기도 고양시 덕양구 통일로 769-2, 1층 (관산동, 소망빌딩)","latitude":"37.6873242","longitude":"126.8647270","phone_number":"031-964-7545","market_hash_key":"-1"},{"market_uid":252,"pharmacy_name":"앞서가는21세기약국","address":"경기도 고양시 일산서구 중앙로 1416, 1층 101호 (주엽동, 한사랑빌딩)","latitude":"37.6697093","longitude":"126.7629307","phone_number":"925-8188","market_hash_key":"-1"},{"market_uid":253,"pharmacy_name":"애플약국","address":"경기도 고양시 일산서구 킨텍스로 217-23, 일산 더샵 그라비스타 102-10호 (대화동)","latitude":"37.6632121573","longitude":"126.7452373971","phone_number":"031-923-0992","market_hash_key":"-1"},{"market_uid":254,"pharmacy_name":"약사랑약국","address":"경기도 고양시 일산동구 강송로 49, 108, 109호 (백석동, 윈스턴파크아이)","latitude":"37.6447721","longitude":"126.7920401","phone_number":"031-907-1686","market_hash_key":"-1"},{"market_uid":255,"pharmacy_name":"약손약국","address":"경기도 고양시 일산서구 고봉로 291 (일산동, 에이스스타디움302-1)","latitude":"37.6852069","longitude":"126.7771312","phone_number":"031 977-9745","market_hash_key":"-1"},{"market_uid":256,"pharmacy_name":"양지약국","address":"경기도 고양시 일산동구 탄중로 426, 106호 (중산동, 중산경남동신APT단지내상가)","latitude":"37.6885967","longitude":"126.7782319","phone_number":"031-977-6190","market_hash_key":"-1"},{"market_uid":257,"pharmacy_name":"어울림온누리약국","address":"경기도 고양시 덕양구 고양대로1384번길 7-5, 105호 (성사동)","latitude":"37.6537196","longitude":"126.8378417","phone_number":"031-968-3773","market_hash_key":"-1"},{"market_uid":258,"pharmacy_name":"에이스약국","address":"경기도 고양시 일산서구 탄중로 514, 에이스10차아파트 상가동동 101호 (일산동)","latitude":"37.6901557557","longitude":"126.7691572186","phone_number":"031 913 2999","market_hash_key":"-1"},{"market_uid":259,"pharmacy_name":"엠시티약국","address":"경기도 고양시 일산동구 백마로 195, 엠시티타워&엠시티오피스텔 1층 1190호 (장항동)","latitude":"37.6547150","longitude":"126.7707981","phone_number":"031-918-0957","market_hash_key":"-1"},{"market_uid":260,"pharmacy_name":"연세약국","address":"경기도 고양시 일산서구 중앙로 1371, 1층 61,62호 (주엽동, 뉴서울상가)","latitude":"37.6666253","longitude":"126.7660121","phone_number":"031 915-0425","market_hash_key":"-1"},{"market_uid":261,"pharmacy_name":"열린약국","address":"경기도 고양시 일산서구 일산로 523, 108호 (일산동, 보성상가)","latitude":"37.6765967","longitude":"126.7693811","phone_number":"031 817 2348","market_hash_key":"-1"},{"market_uid":262,"pharmacy_name":"열린큰사랑약국","address":"경기도 고양시 일산서구 고양대로675번길 8 (일산동)","latitude":"37.6845202","longitude":"126.7714309","phone_number":"031 975 0401","market_hash_key":"-1"},{"market_uid":263,"pharmacy_name":"영재약국","address":"경기도 고양시 덕양구 토당로 115 (토당동, 금호프라자)","latitude":"37.6252720603","longitude":"126.8169823026","phone_number":"031-970-4577","market_hash_key":"-1"},{"market_uid":264,"pharmacy_name":"영진약국","address":"경기도 고양시 덕양구 호국로790번길 42-2 (성사동)","latitude":"37.6553506","longitude":"126.8379514","phone_number":"031-969-1945","market_hash_key":"-1"},{"market_uid":265,"pharmacy_name":"예닮약국","address":"경기도 고양시 일산서구 후곡로 22, 105,106호 (일산동)","latitude":"37.6790450","longitude":"126.7637395","phone_number":"031 915 4773","market_hash_key":"-1"},{"market_uid":266,"pharmacy_name":"예담약국","address":"경기도 고양시 덕양구 행신로 268, 1층 (행신동, 예담메디컬파워)","latitude":"37.6188885","longitude":"126.8447374","phone_number":"031-970-9534","market_hash_key":"-1"},{"market_uid":267,"pharmacy_name":"오약국","address":"경기도 고양시 일산동구 장백로 86, 101호 (백석동)","latitude":"37.6446591","longitude":"126.7844036","phone_number":"031-932-0815","market_hash_key":"-1"},{"market_uid":268,"pharmacy_name":"온누리김원철약국","address":"경기도 고양시 덕양구 중앙로 450, 108호 (행신동, 명성프라자)","latitude":"37.6184480","longitude":"126.8454179","phone_number":"971-1447","market_hash_key":"-1"},{"market_uid":269,"pharmacy_name":"온누리시민약국","address":"경기도 고양시 일산동구 중앙로 1228, 1(일부)층 (마두동, KT고양지사)","latitude":"37.6563285","longitude":"126.7758474","phone_number":"031-901-1091","market_hash_key":"-1"},{"market_uid":270,"pharmacy_name":"온누리열린약국","address":"경기도 고양시 일산서구 산현로 7, 102,103호 (탄현동, 풍성프라자)","latitude":"37.6893492","longitude":"126.7623459","phone_number":"031 921 8141","market_hash_key":"-1"},{"market_uid":271,"pharmacy_name":"온누리우성약국","address":"경기도 고양시 일산동구 백석로 105, 109호 (백석동, 백송마을3단지 우성종합상가)","latitude":"37.6496038","longitude":"126.7884004","phone_number":"031-901-7575","market_hash_key":"-1"},{"market_uid":272,"pharmacy_name":"온누리은하수약국","address":"경기도 고양시 일산동구 강촌로 157, 303호 (마두동, 서울코아)","latitude":"37.6535727","longitude":"126.7909614","phone_number":"031-901-9007","market_hash_key":"-1"},{"market_uid":273,"pharmacy_name":"온누리종로약국","address":"경기도 고양시 일산서구 일현로 140, 114~116호 (탄현동, 큰마을현대아파트)","latitude":"37.7008508","longitude":"126.7649848","phone_number":"031-913-2243","market_hash_key":"-1"},{"market_uid":274,"pharmacy_name":"온누리청심약국","address":"경기도 고양시 덕양구 원당로125번길 5 (주교동)","latitude":"37.6626313","longitude":"126.8386493","phone_number":"962-0362","market_hash_key":"-1"},{"market_uid":275,"pharmacy_name":"온누리흰돌약국","address":"경기도 고양시 일산동구 장백로 59, 106호 (백석동, 흰돌마을주공임대상가)","latitude":"37.6422192","longitude":"126.7852945","phone_number":"031-902-3597","market_hash_key":"-1"},{"market_uid":276,"pharmacy_name":"올리브약국","address":"경기도 고양시 덕양구 동세로 86, 삼송프라자 103호 (삼송동)","latitude":"37.6499909","longitude":"126.8837878","phone_number":"02-381-5570","market_hash_key":"-1"},{"market_uid":277,"pharmacy_name":"올림픽약국","address":"경기도 고양시 일산동구 중앙로 1182 (마두동, 올림픽스포츠센타)","latitude":"37.6526032","longitude":"126.7782611","phone_number":"031-906-0445","market_hash_key":"-1"},{"market_uid":278,"pharmacy_name":"옵티마2층약국","address":"경기도 고양시 덕양구 토당로 115, 223호 (토당동, 금호프라자상가)","latitude":"37.6254973","longitude":"126.8169817","phone_number":"031-973-8521","market_hash_key":"-1"},{"market_uid":279,"pharmacy_name":"우리들약국","address":"경기도 고양시 덕양구 권율대로 900, 105호 (신원동)","latitude":"37.6633861530","longitude":"126.8907252402","phone_number":"02-371-0052","market_hash_key":"-1"},{"market_uid":280,"pharmacy_name":"우리봄약국","address":"경기도 고양시 일산서구 하이파크3로78번길 1, 107호 (덕이동, 리더스프라자)","latitude":"37.6986550","longitude":"126.7531540","phone_number":"031-925-3816","market_hash_key":"-1"},{"market_uid":281,"pharmacy_name":"우리팜약국","address":"경기도 고양시 일산서구 일현로 47, 108호 (탄현동, 예일큰프라자)","latitude":"37.6914852","longitude":"126.7627131","phone_number":"031 925 7007","market_hash_key":"-1"},{"market_uid":282,"pharmacy_name":"우성약국","address":"경기도 고양시 일산동구 동국로 48, 1층 (식사동, 일산송보빌딩)","latitude":"37.6774107","longitude":"126.8056753","phone_number":"031-969--3355","market_hash_key":"-1"},{"market_uid":283,"pharmacy_name":"우주약국","address":"경기도 고양시 일산동구 경의로 315, 101호 (마두동, 설촌상가)","latitude":"37.6579912","longitude":"126.7931020","phone_number":"031-907-0567","market_hash_key":"-1"},{"market_uid":284,"pharmacy_name":"우진온누리약국","address":"경기도 고양시 일산서구 일산로 580, 105호 (일산동, 정발상가)","latitude":"37.6795683","longitude":"126.7641005","phone_number":"031 914 4126","market_hash_key":"-1"},{"market_uid":285,"pharmacy_name":"원광한약국","address":"경기도 고양시 덕양구 화신로 267, 111호 (화정동, 이프라자)","latitude":"37.6304386","longitude":"126.8315152","phone_number":"031-972-8005","market_hash_key":"-1"},{"market_uid":286,"pharmacy_name":"원당시장약국","address":"경기도 고양시 덕양구 호국로 803 (주교동, 세창아파트)","latitude":"37.6576016","longitude":"126.8369831","phone_number":"968-5969","market_hash_key":"-1"},{"market_uid":287,"pharmacy_name":"원당약국","address":"경기도 고양시 덕양구 호국로 788 (성사동)","latitude":"37.6562671","longitude":"126.8362042","phone_number":"962-5114","market_hash_key":"-1"},{"market_uid":288,"pharmacy_name":"원약국","address":"경기도 고양시 일산서구 호수로 817, 레이킨스몰 264(일부)호 (대화동)","latitude":"37.6679645069","longitude":"126.7513867788","phone_number":"070-4156-7861","market_hash_key":"-1"},{"market_uid":289,"pharmacy_name":"원흥온누리약국","address":"경기도 고양시 덕양구 권율대로 672, 311호 (원흥동)","latitude":"37.6498273","longitude":"126.8738390","phone_number":"031)967-2265","market_hash_key":"-1"},{"market_uid":290,"pharmacy_name":"웨스턴약국","address":"경기도 고양시 일산동구 정발산로 24, A-109호 (장항동, 웨스턴돔1)","latitude":"37.6546825","longitude":"126.7726001","phone_number":"031-931-5969","market_hash_key":"-1"},{"market_uid":291,"pharmacy_name":"위시티 우리약국","address":"경기도 고양시 일산동구 위시티4로 46, 106호 (식사동, 위시티일산자이2단지상가)","latitude":"37.6825629","longitude":"126.8159098","phone_number":"031-964-1158","market_hash_key":"-1"},{"market_uid":292,"pharmacy_name":"위시티사랑약국","address":"경기도 고양시 일산동구 위시티2로11번길 31, 120호 (식사동, 스타타워)","latitude":"37.6779083","longitude":"126.8123961","phone_number":"031-969-4085","market_hash_key":"-1"},{"market_uid":293,"pharmacy_name":"위시티진영약국","address":"경기도 고양시 일산동구 위시티4로 80, 1동 204일부호 (식사동, 위시티일산자이1단지아파트)","latitude":"37.6834395","longitude":"126.8119625","phone_number":"070-4241-0108","market_hash_key":"-1"},{"market_uid":294,"pharmacy_name":"유명약국","address":"경기도 고양시 덕양구 행당로 2, 102호 (토당동, 가남프라자)","latitude":"37.6197430","longitude":"126.8247323","phone_number":"031-972-9871","market_hash_key":"-1"},{"market_uid":295,"pharmacy_name":"유스약국","address":"경기도 고양시 덕양구 동세로 63, 1층 (삼송동, 강남프라자)","latitude":"37.6480543","longitude":"126.8842555","phone_number":"02-381-9475","market_hash_key":"-1"},{"market_uid":296,"pharmacy_name":"유승약국","address":"경기도 고양시 일산동구 일산로 452, 일산프라자 (정발산동)","latitude":"37.6739625","longitude":"126.7769045","phone_number":"070-8860-3657","market_hash_key":"-1"},{"market_uid":297,"pharmacy_name":"유진온누리약국","address":"경기도 고양시 일산서구 중앙로 1565, 104호 (대화동, 메드위즈빌딩)","latitude":"37.6755426","longitude":"126.7476885","phone_number":"031 915 3382","market_hash_key":"-1"},{"market_uid":298,"pharmacy_name":"유한약국","address":"경기도 고양시 덕양구 원당로125번길 12, 101호 (주교동, 원릉빌딩)","latitude":"37.6630727","longitude":"126.8385690","phone_number":"031-963-7185","market_hash_key":"-1"},{"market_uid":299,"pharmacy_name":"윤약국","address":"경기도 고양시 일산동구 일산로 444 (정발산동)","latitude":"37.6736305","longitude":"126.7776310","phone_number":"031-913-0863","market_hash_key":"-1"},{"market_uid":300,"pharmacy_name":"윤진약국","address":"경기도 고양시 덕양구 중앙로 554, 103호 (행신동, 희성프라자)","latitude":"37.6236064","longitude":"126.8358467","phone_number":"031-970-3648","market_hash_key":"-1"},{"market_uid":301,"pharmacy_name":"으뜸약국","address":"경기도 고양시 일산동구 일산로 46, 411호 (백석동, 남정씨티프라자3차)","latitude":"37.6422689280","longitude":"126.7878437124","phone_number":"070-8234-1743","market_hash_key":"-1"},{"market_uid":302,"pharmacy_name":"은빛약국","address":"경기도 고양시 일산동구 중앙로 1172, 302호 일부호 (마두동, 그랜드프라자)","latitude":"37.6516574","longitude":"126.7783773","phone_number":"031-907-0930","market_hash_key":"-1"},{"market_uid":303,"pharmacy_name":"은성약국","address":"경기도 고양시 일산서구 고양대로 732, 101호 (일산동, 대진빌딩)","latitude":"37.6826302","longitude":"126.7771503","phone_number":"031-917-8410","market_hash_key":"-1"},{"market_uid":304,"pharmacy_name":"은약국","address":"경기도 고양시 일산동구 정발산로 38, 306-2호 (장항동, 장항동이스턴시티)","latitude":"37.6566476","longitude":"126.7731153","phone_number":"031-902-1512","market_hash_key":"-1"},{"market_uid":305,"pharmacy_name":"은혜약국","address":"경기도 고양시 덕양구 혜음로 29-1 (고양동)","latitude":"37.7031286","longitude":"126.9017214","phone_number":"031-962-6459","market_hash_key":"-1"},{"market_uid":306,"pharmacy_name":"이마트타운약국 킨텍스점","address":"경기도 고양시 일산서구 킨텍스로 171, 이마트타운 1(일부)층 (대화동)","latitude":"37.6614886458","longitude":"126.7440193657","phone_number":"031-916-7775","market_hash_key":"-1"},{"market_uid":307,"pharmacy_name":"이십일세기새롬약국","address":"경기도 고양시 덕양구 화정로 53, 110호 (화정동, 새롬프라자)","latitude":"37.6351061","longitude":"126.8318444","phone_number":"031-965-4677","market_hash_key":"-1"},{"market_uid":308,"pharmacy_name":"이조약국","address":"경기도 고양시 덕양구 행신로143번길 72-1, 1층 (행신동)","latitude":"37.6225548","longitude":"126.8313181","phone_number":"031-972-4426","market_hash_key":"-1"},{"market_uid":309,"pharmacy_name":"이층호수약국","address":"경기도 고양시 일산동구 백석로 24, 202호 (백석동, 흰돌마을3단지상가동)","latitude":"37.6434142","longitude":"126.7835688","phone_number":"031-901-5547","market_hash_key":"-1"},{"market_uid":310,"pharmacy_name":"이편한온누리약국","address":"경기도 고양시 일산서구 주화로 180, 104호 (대화동, 월드메르디앙)","latitude":"37.6744917","longitude":"126.7491883","phone_number":"031 913 0066","market_hash_key":"-1"},{"market_uid":311,"pharmacy_name":"인정약국","address":"경기도 고양시 일산동구 정발산로196번길 7-25 (마두동)","latitude":"37.6634878","longitude":"126.7884851","phone_number":"031-905-9050","market_hash_key":"-1"},{"market_uid":312,"pharmacy_name":"인제조은약국","address":"경기도 고양시 일산서구 호수로856번길 73-2, 1층 (대화동)","latitude":"37.6736551439","longitude":"126.7497693290","phone_number":"031-915-2400","market_hash_key":"-1"},{"market_uid":313,"pharmacy_name":"일산굿모닝약국","address":"경기도 고양시 일산서구 호수로856번길 74-9, 1층 (대화동)","latitude":"37.6733501","longitude":"126.7504051","phone_number":"031 925 3200","market_hash_key":"-1"},{"market_uid":314,"pharmacy_name":"일산그린약국","address":"경기도 고양시 일산동구 고양대로 739, 203호 (중산동, 주은프라자)","latitude":"37.6827949","longitude":"126.7784875","phone_number":"031-975-2475","market_hash_key":"-1"},{"market_uid":315,"pharmacy_name":"일산나을약국","address":"경기도 고양시 일산동구 중앙로 1172, 510호 (마두동, 그랜드프라자)","latitude":"37.6516574","longitude":"126.7783773","phone_number":"031-902-9906","market_hash_key":"-1"},{"market_uid":316,"pharmacy_name":"일산늘푸른약국","address":"경기도 고양시 일산동구 중앙로1275번길 38-10, 210호 (장항동, 우림로데오스위트)","latitude":"37.6598507","longitude":"126.7708728","phone_number":"905-4535","market_hash_key":"-1"},{"market_uid":317,"pharmacy_name":"일산더조은약국","address":"경기도 고양시 일산서구 호수로856번길 74-3, 1(전체)층 (대화동)","latitude":"37.6734847884","longitude":"126.7501552992","phone_number":"031-914-8275","market_hash_key":"-1"},{"market_uid":318,"pharmacy_name":"일산메디칼약국","address":"경기도 고양시 일산동구 강송로 49, 101호 (백석동, 윈스턴파크)","latitude":"37.6447721","longitude":"126.7920401","phone_number":"031-902-9988","market_hash_key":"-1"},{"market_uid":319,"pharmacy_name":"일산사랑약국","address":"경기도 고양시 일산동구 일산로 211 (마두동, 2층일부)","latitude":"37.6548491","longitude":"126.7893259","phone_number":"031-903-8806","market_hash_key":"-1"},{"market_uid":320,"pharmacy_name":"일산선약국","address":"경기도 고양시 일산서구 가좌1로 53, 110호 (가좌동, 샤르망프라자)","latitude":"37.6873784","longitude":"126.7188289","phone_number":"031-923-0222","market_hash_key":"-1"},{"market_uid":321,"pharmacy_name":"일산아이약국","address":"경기도 고양시 일산동구 일산로 439, 1(일부)층 (정발산동)","latitude":"37.6729372","longitude":"126.7778484","phone_number":"031-925-0350","market_hash_key":"-1"},{"market_uid":322,"pharmacy_name":"일산에이스약국","address":"경기도 고양시 일산서구 중앙로 1560 (대화동, 다산스카이빌 101호)","latitude":"37.6759591","longitude":"126.7486052","phone_number":"031-912-6969","market_hash_key":"-1"},{"market_uid":323,"pharmacy_name":"일산큰사랑약국","address":"경기도 고양시 일산서구 일산로 676, 1층 (대화동)","latitude":"37.6824575","longitude":"126.7540132","phone_number":"031-919-2728","market_hash_key":"-1"},{"market_uid":324,"pharmacy_name":"일산태양약국","address":"경기도 고양시 일산서구 고양대로632번길 60, 113,114호 (일산동, 일산역이안)","latitude":"37.6837936951","longitude":"126.7685196581","phone_number":"031-976-9933","market_hash_key":"-1"},{"market_uid":325,"pharmacy_name":"일산호산나약국","address":"경기도 고양시 일산서구 원일로 69, 씨티프라자 311호 (일산동)","latitude":"37.6867340","longitude":"126.7701542","phone_number":"031-975-4589","market_hash_key":"-1"},{"market_uid":326,"pharmacy_name":"임약국","address":"경기도 고양시 덕양구 보광로 2, 2층 (고양동)","latitude":"37.7171020","longitude":"126.9011694","phone_number":"962-3337","market_hash_key":"-1"},{"market_uid":327,"pharmacy_name":"자미한약국","address":"경기도 고양시 덕양구 충장로 140 (행신동,썬프라자 102호)","latitude":"37.6246325","longitude":"126.8351534","phone_number":"031)973-3770","market_hash_key":"-1"},{"market_uid":328,"pharmacy_name":"자연약국","address":"경기도 고양시 일산동구 장백로 194, 111호 (장항동, 위너스21)","latitude":"37.6520235","longitude":"126.7766537","phone_number":"031-902-9571","market_hash_key":"-1"},{"market_uid":329,"pharmacy_name":"자연온누리약국","address":"경기도 고양시 일산동구 중산로 117, 105.106호 (중산동, 성도빌딩)","latitude":"37.6824573","longitude":"126.7809825","phone_number":"031-908-2550","market_hash_key":"-1"},{"market_uid":330,"pharmacy_name":"작은약국","address":"경기도 고양시 덕양구 용현로 7 (행신동, 에버그린110호)","latitude":"37.6133618","longitude":"126.8354845","phone_number":"973-1717","market_hash_key":"-1"},{"market_uid":331,"pharmacy_name":"장수약국","address":"경기도 고양시 덕양구 도래울로 42-5, 103호 (도내동)","latitude":"37.6294153965","longitude":"126.8693996702","phone_number":"031-966-6928","market_hash_key":"-1"},{"market_uid":332,"pharmacy_name":"정다운약국","address":"경기도 고양시 일산동구 일산로 213, 106호 (마두동, 두성코아빌딩)","latitude":"37.6551551","longitude":"126.7891210","phone_number":"031-906-4946","market_hash_key":"-1"},{"market_uid":333,"pharmacy_name":"정다운온누리약국","address":"경기도 고양시 덕양구 권율대로 889, 103호 (신원동, 파스텔시티2)","latitude":"37.6633849","longitude":"126.8894218","phone_number":"02)381-0975","market_hash_key":"-1"},{"market_uid":334,"pharmacy_name":"정문온누리약국","address":"경기도 고양시 일산동구 일산로 328, 103,104호 (마두동, 수색조합상가)","latitude":"37.6646605","longitude":"126.7843450","phone_number":"031-906-6745","market_hash_key":"-1"},{"market_uid":335,"pharmacy_name":"정발산약국","address":"경기도 고양시 일산동구 정발산로 43-20, 120호 (장항동, 센트럴프라자)","latitude":"37.6582698","longitude":"126.7733483","phone_number":"031-904-8227","market_hash_key":"-1"},{"market_uid":336,"pharmacy_name":"정성약국","address":"경기도 고양시 일산동구 중앙로 1199, 101호 (장항동)","latitude":"37.6535184369","longitude":"126.7762979464","phone_number":"031-907-3344","market_hash_key":"-1"},{"market_uid":337,"pharmacy_name":"정신약국","address":"경기도 고양시 일산동구 장항로 293 (장항동)","latitude":"37.6427697","longitude":"126.7670510","phone_number":"908-0981","market_hash_key":"-1"},{"market_uid":338,"pharmacy_name":"정약국","address":"경기도 고양시 일산서구 고봉로 291, 307호 (일산동, 에이스스타디움)","latitude":"37.6852069","longitude":"126.7771312","phone_number":"031 976 8554","market_hash_key":"-1"},{"market_uid":339,"pharmacy_name":"제니스약국","address":"경기도 고양시 일산서구 일현로 97-11, 1층 109-B호 (탄현동, 일산 위브더제니스)","latitude":"37.6940982","longitude":"126.7628408","phone_number":"031-917-5119","market_hash_key":"-1"},{"market_uid":340,"pharmacy_name":"제니스온누리약국","address":"경기도 고양시 일산서구 일현로 97-11, 일산 위브더제니스 158-A호 (탄현동, 일산 위브더제니스)","latitude":"37.6940982897","longitude":"126.7628408118","phone_number":"031-918-7119","market_hash_key":"-1"},{"market_uid":341,"pharmacy_name":"제일약국","address":"경기도 고양시 일산동구 일산로 214, 화성프라자 1층 101호 (마두동)","latitude":"37.6554086","longitude":"126.7898229","phone_number":"031-904-3158","market_hash_key":"-1"},{"market_uid":342,"pharmacy_name":"제일조은약국","address":"경기도 고양시 일산동구 동국로 20 (식사동)","latitude":"37.6758552","longitude":"126.8075724","phone_number":"031-965-3353","market_hash_key":"-1"},{"market_uid":343,"pharmacy_name":"제일편한약국","address":"경기도 고양시 일산동구 장백로 178, 106호 (장항동, 뉴욕프라자)","latitude":"37.6506824","longitude":"126.7773830","phone_number":"031-901-8006","market_hash_key":"-1"},{"market_uid":344,"pharmacy_name":"종로대학약국","address":"경기도 고양시 덕양구 화수로14번길 56 (화정동)","latitude":"37.6423020","longitude":"126.8299017","phone_number":"031-965-5922","market_hash_key":"-1"},{"market_uid":345,"pharmacy_name":"종로약국","address":"경기도 고양시 덕양구 화신로 278, 105호 (화정동, 세일빌딩)","latitude":"37.6310768","longitude":"126.8305168","phone_number":"031-974-7582","market_hash_key":"-1"},{"market_uid":346,"pharmacy_name":"좋은느낌우리약국","address":"경기도 고양시 일산동구 고양대로 754 (중산동, 소이빌딩)","latitude":"37.6820402","longitude":"126.7795667","phone_number":"031-975-9501","market_hash_key":"-1"},{"market_uid":347,"pharmacy_name":"주약국","address":"경기도 고양시 일산서구 하이파크2로 60, 1층 104호 (덕이동, 든든한빌딩)","latitude":"37.6990933","longitude":"126.7559079","phone_number":"031-911-1117","market_hash_key":"-1"},{"market_uid":348,"pharmacy_name":"주엽약국","address":"경기도 고양시 일산서구 중앙로 1437 (주엽동, 화성프라자 105호)","latitude":"37.6699656","longitude":"126.7604589","phone_number":"031-817-3801","market_hash_key":"-1"},{"market_uid":349,"pharmacy_name":"중앙약국","address":"경기도 고양시 덕양구 지도로 107 (토당동)","latitude":"37.6266063","longitude":"126.8233792","phone_number":"031-970-8338","market_hash_key":"-1"},{"market_uid":350,"pharmacy_name":"중앙약국","address":"경기도 고양시 일산동구 강송로 49, 107호 (백석동, 윈스터파크1)","latitude":"37.6447721","longitude":"126.7920401","phone_number":"031-905-0357","market_hash_key":"-1"},{"market_uid":351,"pharmacy_name":"중앙프라자약국","address":"경기도 고양시 일산서구 대산로 222, 1층 (대화동)","latitude":"37.6788180","longitude":"126.7541841","phone_number":"031 922 6415","market_hash_key":"-1"},{"market_uid":352,"pharmacy_name":"지성약국","address":"경기도 고양시 일산서구 중앙로 1419, 102호 (주엽동, 정도프라자)","latitude":"37.6692123","longitude":"126.7622069","phone_number":"031-917-2230","market_hash_key":"-1"},{"market_uid":353,"pharmacy_name":"지우약국","address":"경기도 고양시 덕양구 무원로6번길 20, M타워 503호 (행신동)","latitude":"37.6133322","longitude":"126.8336498","phone_number":"979-8397","market_hash_key":"-1"},{"market_uid":354,"pharmacy_name":"진영약국","address":"경기도 고양시 일산동구 강석로 115, 102호 (마두동, 장항빌딩)","latitude":"37.6510194","longitude":"126.7792630","phone_number":"031-904-3753","market_hash_key":"-1"},{"market_uid":355,"pharmacy_name":"참사랑약국","address":"경기도 고양시 덕양구 화중로 32-31, 효원빌딩 101호 (화정동)","latitude":"37.6300517","longitude":"126.8318673","phone_number":"031-979-6133","market_hash_key":"-1"},{"market_uid":356,"pharmacy_name":"참약국","address":"경기도 고양시 일산동구 중앙로 1130, A2-11호 (마두동, 강촌마을6단지아파트)","latitude":"37.6496066","longitude":"126.7802078","phone_number":"031-918-2549","market_hash_key":"-1"},{"market_uid":357,"pharmacy_name":"참조은약국","address":"경기도 고양시 일산서구 고양대로 691, 2층 (일산동, 한더빌딩)","latitude":"37.6839017","longitude":"126.7730426","phone_number":"031 975 1777","market_hash_key":"-1"},{"market_uid":358,"pharmacy_name":"천사약국","address":"경기도 고양시 덕양구 의장로 140, 104호 (도내동)","latitude":"37.6350748","longitude":"126.8705904","phone_number":"031-967-9552","market_hash_key":"-1"},{"market_uid":359,"pharmacy_name":"청구약국","address":"경기도 고양시 일산동구 노루목로 107, 111호 (장항동, 청구APT상가)","latitude":"37.6501845","longitude":"126.7761267","phone_number":"031-904-5882","market_hash_key":"-1"},{"market_uid":360,"pharmacy_name":"청암약국","address":"경기도 고양시 일산서구 일현로 128, 1층 101-2, 102호 (탄현동, 탄현마을상가동)","latitude":"37.6985121","longitude":"126.7669085","phone_number":"031 915 9490","market_hash_key":"-1"},{"market_uid":361,"pharmacy_name":"충무약국","address":"경기도 고양시 일산동구 장백로 172, 305호 (장항동, 금강프라자)","latitude":"37.6501605","longitude":"126.7777132","phone_number":"031-903-1123","market_hash_key":"-1"},{"market_uid":362,"pharmacy_name":"코끼리온누리약국","address":"경기도 고양시 일산서구 중앙로 1456, 서현프라자 108호 (주엽동)","latitude":"37.6714580","longitude":"126.7589352","phone_number":"031-913-0516","market_hash_key":"-1"},{"market_uid":363,"pharmacy_name":"코코약국","address":"경기도 고양시 일산동구 정발산로 33, 낙원프라자 4층 402-1호 (장항동)","latitude":"37.6570789","longitude":"126.7725133","phone_number":"031-906-9844","market_hash_key":"-1"},{"market_uid":364,"pharmacy_name":"코코온누리약국","address":"경기도 고양시 덕양구 동세로 88, 102호 (삼송동, 오케이세솔프라자)","latitude":"37.6501350","longitude":"126.8836969","phone_number":"02)381-5540","market_hash_key":"-1"},{"market_uid":365,"pharmacy_name":"크린팜대학약국","address":"경기도 고양시 일산동구 동국로 24, 1(일부)층 (식사동)","latitude":"37.6761255","longitude":"126.8075717","phone_number":"031-962-4763","market_hash_key":"-1"},{"market_uid":366,"pharmacy_name":"큰곰약국","address":"경기도 고양시 덕양구 혜음로 9, 정호빌딩 1층 2,3호 (고양동)","latitude":"37.7014616","longitude":"126.9015082","phone_number":"031-962-5685","market_hash_key":"-1"},{"market_uid":367,"pharmacy_name":"큰나무약국","address":"경기도 고양시 덕양구 고양대로 1361, 11호 (성사동, 신원당빌딩)","latitude":"37.6549328","longitude":"126.8356179","phone_number":"031)967-5385","market_hash_key":"-1"},{"market_uid":368,"pharmacy_name":"큰믿음약국","address":"경기도 고양시 일산서구 호수로856번길 73-4, 1층 (대화동)","latitude":"37.6737089","longitude":"126.7496557","phone_number":"031-921-6622","market_hash_key":"-1"},{"market_uid":369,"pharmacy_name":"큰사랑약국","address":"경기도 고양시 일산서구 강선로 59, 103호 (주엽동, 동신파크)","latitude":"37.6694598","longitude":"126.7642689","phone_number":"031-916-5040","market_hash_key":"-1"},{"market_uid":370,"pharmacy_name":"킨텍스아는약국","address":"경기도 고양시 일산서구 킨텍스로 240, 킨텍스 꿈에그린 130호 (대화동, 킨텍스 꿈에그린)","latitude":"37.6660977068","longitude":"126.7505430334","phone_number":"031-911-6002","market_hash_key":"-1"},{"market_uid":371,"pharmacy_name":"킨텍스프라자약국","address":"경기도 고양시 일산서구 호수로 817, 지하1층 일부호 (대화동, 레이킨스몰 홈플러스킨텍스점)","latitude":"37.6679645","longitude":"126.7513867","phone_number":"031-917-3137","market_hash_key":"-1"},{"market_uid":372,"pharmacy_name":"킴스백화점약국","address":"경기도 고양시 덕양구 화신로260번길 51, 현창빌딩 1층 (화정동)","latitude":"37.6329718","longitude":"126.8325630","phone_number":"031-979-8584","market_hash_key":"-1"},{"market_uid":373,"pharmacy_name":"탄현약국","address":"경기도 고양시 일산서구 일현로 97-11, 1층 112호 (탄현동, 일산위브더제니스)","latitude":"37.6940982","longitude":"126.7628408","phone_number":"070-8822-0160","market_hash_key":"-1"},{"market_uid":374,"pharmacy_name":"태창약국","address":"경기도 고양시 일산서구 강선로 59, 305호 (주엽동, 동신파크빌딩)","latitude":"37.6694598","longitude":"126.7642689","phone_number":"031 919 9311","market_hash_key":"-1"},{"market_uid":375,"pharmacy_name":"터미널약국","address":"경기도 고양시 일산동구 중앙로 1036, 1층 일부호 (백석동, 베스트 고양터미널)","latitude":"37.6431641","longitude":"126.7896540","phone_number":"031-936-7492","market_hash_key":"-1"},{"market_uid":376,"pharmacy_name":"토마토약국","address":"경기도 고양시 일산서구 강선로 59, 405호 (주엽동, 동신파크빌딩)","latitude":"37.6694598","longitude":"126.7642689","phone_number":"031-924-7392","market_hash_key":"-1"},{"market_uid":377,"pharmacy_name":"통일로약국","address":"경기도 고양시 덕양구 통일로 772 (관산동)","latitude":"37.6878468","longitude":"126.8647601","phone_number":"031-969-3636","market_hash_key":"-1"},{"market_uid":378,"pharmacy_name":"튼튼약국","address":"경기도 고양시 일산서구 중앙로 1426 (주엽동, 일송노블레스 208호일부)","latitude":"37.6701848","longitude":"126.7619090","phone_number":"031-917-7582","market_hash_key":"-1"},{"market_uid":379,"pharmacy_name":"파랑새온누리약국","address":"경기도 고양시 일산서구 중앙로 1455, 157호 (주엽동, 대우시티프라자)","latitude":"37.6708264","longitude":"126.7584952","phone_number":"0319173980","market_hash_key":"-1"},{"market_uid":380,"pharmacy_name":"평강약국","address":"경기도 고양시 덕양구 호국로 822, 1층 119호 (성사동, 명지캐럿86)","latitude":"37.6584060","longitude":"126.8387832","phone_number":"031)818-7176","market_hash_key":"-1"},{"market_uid":381,"pharmacy_name":"평화약국","address":"경기도 고양시 일산서구 호수로856번길 74-1, 1층 (대화동)","latitude":"37.6735475","longitude":"126.7500190","phone_number":"031-916-4688","market_hash_key":"-1"},{"market_uid":382,"pharmacy_name":"평화온누리약국","address":"경기도 고양시 일산동구 숲속마을1로 73, 106호 (풍동, 신성메디칼타운1층)","latitude":"37.6675442","longitude":"126.7997963","phone_number":"031-906-9599","market_hash_key":"-1"},{"market_uid":383,"pharmacy_name":"푸른나무아래약국","address":"경기도 고양시 일산동구 무궁화로 39, 110호 (장항동, 삼라마이다스3차)","latitude":"37.6634047015","longitude":"126.7684364383","phone_number":"031-919-3103","market_hash_key":"-1"},{"market_uid":384,"pharmacy_name":"푸른바다약국","address":"경기도 고양시 일산서구 중앙로 1559, 107호 (대화동, 씨티타워)","latitude":"37.6753454","longitude":"126.7481539","phone_number":"924-3110","market_hash_key":"-1"},{"market_uid":385,"pharmacy_name":"푸른솔약국","address":"경기도 고양시 덕양구 충장로 150, 2층 (행신동, 롯데마트고양점)","latitude":"37.6251114","longitude":"126.8361265","phone_number":"070-4217-3902","market_hash_key":"-1"},{"market_uid":386,"pharmacy_name":"푸른약국","address":"경기도 고양시 일산서구 중앙로 1456, 서현프라자 120,121호 (주엽동)","latitude":"37.6714580847","longitude":"126.7589352610","phone_number":"031-914-1558","market_hash_key":"-1"},{"market_uid":387,"pharmacy_name":"푸른온누리약국","address":"경기도 고양시 덕양구 통일로 773 (관산동)","latitude":"37.6872967","longitude":"126.8643416","phone_number":"963-3030","market_hash_key":"-1"},{"market_uid":388,"pharmacy_name":"품안에약국","address":"경기도 고양시 일산동구 중앙로 1189, 104호 (장항동, GM굿모닝 법조타운)","latitude":"37.6526904","longitude":"126.7767650","phone_number":"070-4116-3784","market_hash_key":"-1"},{"market_uid":389,"pharmacy_name":"풍동메디칼약국","address":"경기도 고양시 일산동구 숲속마을1로 77, 106호 (풍동, 그린메디피아빌딩)","latitude":"37.6677424","longitude":"126.7997958","phone_number":"909-5335","market_hash_key":"-1"},{"market_uid":390,"pharmacy_name":"풍동약국","address":"경기도 고양시 일산동구 숲속마을로 40, 1(일부)층 (풍동, 유진프라자)","latitude":"37.6673262","longitude":"126.7987882","phone_number":"031-906-8111","market_hash_key":"-1"},{"market_uid":391,"pharmacy_name":"풍동조은약국","address":"경기도 고양시 일산동구 숲속마을로 26, 304-A호 (풍동, 풍동프라자)","latitude":"37.6672389","longitude":"126.8003752","phone_number":"070-8878-8098","market_hash_key":"-1"},{"market_uid":392,"pharmacy_name":"풍동태평양약국","address":"경기도 고양시 일산동구 숲속마을1로 76, 102, 103호 (풍동)","latitude":"37.6677164","longitude":"126.8003739","phone_number":"031-905-7985","market_hash_key":"-1"},{"market_uid":393,"pharmacy_name":"풍림온누리약국","address":"경기도 고양시 일산서구 현중로 8, 상가동 114호 (탄현동, 탄현마을16단지)","latitude":"37.6918502","longitude":"126.7694920","phone_number":"031-922-1809","market_hash_key":"-1"},{"market_uid":394,"pharmacy_name":"풍산사랑약국","address":"경기도 고양시 일산동구 무궁화로 237 (중산동, 4층 일부(중산동, 이마트 풍산점))","latitude":"37.6738193","longitude":"126.7870725","phone_number":"976-1470","market_hash_key":"-1"},{"market_uid":395,"pharmacy_name":"프라임약국","address":"경기도 고양시 일산동구 고봉로 32-6, 102호 (장항동, 엔트리원프라자)","latitude":"37.6644621","longitude":"126.7655770","phone_number":"031-924-7965","market_hash_key":"-1"},{"market_uid":396,"pharmacy_name":"플러스약국","address":"경기도 고양시 일산동구 일산로316번길 5-9 (마두동, 1층)","latitude":"37.6641297","longitude":"126.7847319","phone_number":"031-932-1516","market_hash_key":"-1"},{"market_uid":397,"pharmacy_name":"하나로약국","address":"경기도 고양시 덕양구 충장로 134, 106호 (행신동, 아이프라자)","latitude":"37.6242988","longitude":"126.8349276","phone_number":"971-9052","market_hash_key":"-1"},{"market_uid":398,"pharmacy_name":"하나약국","address":"경기도 고양시 덕양구 행신로 266, 1층 103호 (행신동, 월드타워)","latitude":"37.6186631","longitude":"126.8446246","phone_number":"031-970-3040","market_hash_key":"-1"},{"market_uid":399,"pharmacy_name":"하늘샘약국","address":"경기도 고양시 일산서구 덕이로 8 (덕이동, 아이산산후조리원 1층 일부)","latitude":"37.6897914","longitude":"126.7583196","phone_number":"031 925 0733","market_hash_key":"-1"},{"market_uid":400,"pharmacy_name":"하늘약국","address":"경기도 고양시 일산동구 위시티4로 46, 상가동 302, 303호 (식사동, 위시티일산자이2단지아파트)","latitude":"37.6825629","longitude":"126.8159098","phone_number":"031-967-0053","market_hash_key":"-1"},{"market_uid":401,"pharmacy_name":"하얀약국","address":"경기도 고양시 일산동구 고봉로 270, 1층 (중산동)","latitude":"37.6832358","longitude":"126.7781574","phone_number":"031-976-2758","market_hash_key":"-1"},{"market_uid":402,"pharmacy_name":"하이약국","address":"경기도 고양시 일산동구 고양대로 757 (중산동)","latitude":"37.6825728","longitude":"126.7801206","phone_number":"031-977-6617","market_hash_key":"-1"},{"market_uid":403,"pharmacy_name":"한결온누리약국","address":"경기도 고양시 일산동구 강송로 169, 102호 (마두동, 한주프라자 )","latitude":"37.6537393","longitude":"126.7835384","phone_number":"031-902-0526","market_hash_key":"-1"},{"market_uid":404,"pharmacy_name":"한국약국","address":"경기도 고양시 덕양구 호국로 778-28 (성사동)","latitude":"37.6557456","longitude":"126.8369873","phone_number":"031-968-9992","market_hash_key":"-1"},{"market_uid":405,"pharmacy_name":"한나약국","address":"경기도 고양시 일산서구 중앙로 1406, 106호 (주엽동, 한솔코아)","latitude":"37.6692697","longitude":"126.7638275","phone_number":"031-915-7501","market_hash_key":"-1"},{"market_uid":406,"pharmacy_name":"한마음약국","address":"경기도 고양시 덕양구 삼송로 12 (원흥동)","latitude":"37.6496036","longitude":"126.8753125","phone_number":"031)963-1771","market_hash_key":"-1"},{"market_uid":407,"pharmacy_name":"한미약국","address":"경기도 고양시 일산서구 일현로 56, 106호 (탄현동, 삼정프라자)","latitude":"37.6919017","longitude":"126.7637435","phone_number":"031 922 9577","market_hash_key":"-1"},{"market_uid":408,"pharmacy_name":"한빛약국","address":"경기도 고양시 덕양구 용현로 27, 104호 (행신동, 행신프라자)","latitude":"37.6151368","longitude":"126.8355711","phone_number":"031-970-6192","market_hash_key":"-1"},{"market_uid":409,"pharmacy_name":"한사랑약국","address":"경기도 고양시 일산서구 중앙로 1416, 703호 (주엽동, 한사랑빌딩)","latitude":"37.6697093","longitude":"126.7629307","phone_number":"031 922 8666","market_hash_key":"-1"},{"market_uid":410,"pharmacy_name":"한사랑온누리약국","address":"경기도 고양시 일산서구 하이파크3로 84, 104호 (덕이동, 신성프라자)","latitude":"37.6989343","longitude":"126.7531531","phone_number":"031-913-8232","market_hash_key":"-1"},{"market_uid":411,"pharmacy_name":"한소망약국","address":"경기도 고양시 일산동구 고봉로 20-5, 503호의 일부호 (장항동, 포오스프라자)","latitude":"37.6641818","longitude":"126.7651019","phone_number":"","market_hash_key":"-1"},{"market_uid":412,"pharmacy_name":"한울약국","address":"경기도 고양시 덕양구 화중로 60, 302호 (화정동, 화정종합상가)","latitude":"37.6323295","longitude":"126.8307632","phone_number":"031-973-2335","market_hash_key":"-1"},{"market_uid":413,"pharmacy_name":"해뜨는약국","address":"경기도 고양시 덕양구 혜음로 45, 1층 (고양동, 고양메디칼빌딩)","latitude":"37.7045973","longitude":"126.9018328","phone_number":"031-964-8008","market_hash_key":"-1"},{"market_uid":414,"pharmacy_name":"해봄약국","address":"경기도 고양시 일산동구 숲속마을1로 29-30, 106호 (풍동, 라고크리닉)","latitude":"37.6640710","longitude":"126.7972330","phone_number":"031-907-3621","market_hash_key":"-1"},{"market_uid":415,"pharmacy_name":"해솔약국","address":"경기도 고양시 덕양구 화중로 54, 서일빌딩 110호 (화정동)","latitude":"37.6318879","longitude":"126.8306735","phone_number":"031)979-9465","market_hash_key":"-1"},{"market_uid":416,"pharmacy_name":"해인약국","address":"경기도 고양시 덕양구 중앙로 550, 303-A호 (행신동, 삼일프라자)","latitude":"37.6234177","longitude":"126.8361756","phone_number":"031-970-9734","market_hash_key":"-1"},{"market_uid":417,"pharmacy_name":"햇빛가득약국","address":"경기도 고양시 덕양구 충장로 14, 401호 (행신동)","latitude":"37.6139459882","longitude":"126.8344299172","phone_number":"031-938-8166","market_hash_key":"-1"},{"market_uid":418,"pharmacy_name":"햇빛약국","address":"경기도 고양시 일산동구 중산로 247, 103호 (중산동, 중산프라자)","latitude":"37.6941777","longitude":"126.7803807","phone_number":"031-975-1313","market_hash_key":"-1"},{"market_uid":419,"pharmacy_name":"햇살약국","address":"경기도 고양시 덕양구 행신로 276, 105호 (행신동, 명일프라자)","latitude":"37.6194385","longitude":"126.8450081","phone_number":"031)973-3200","market_hash_key":"-1"},{"market_uid":420,"pharmacy_name":"행복가득약국","address":"경기도 고양시 일산서구 중앙로 1426, 일송노블레스 4층 408호 (주엽동)","latitude":"37.6701848276","longitude":"126.7619090802","phone_number":"031-915-1003","market_hash_key":"-1"},{"market_uid":421,"pharmacy_name":"행복가득한약국","address":"경기도 고양시 덕양구 무원로 62, 1층 (행신동)","latitude":"37.6183309","longitude":"126.8324831","phone_number":"031-972-6985","market_hash_key":"-1"},{"market_uid":422,"pharmacy_name":"행복드림약국","address":"경기도 고양시 덕양구 호국로 819, 1층 (주교동, 신도빌딩)","latitude":"37.6587747","longitude":"126.8382838","phone_number":"031-967-2700","market_hash_key":"-1"},{"market_uid":423,"pharmacy_name":"행복약국","address":"경기도 고양시 일산서구 일산로 538, 103호 (일산동, 일신2조합)","latitude":"37.6776849306","longitude":"126.7684028464","phone_number":"915-7717","market_hash_key":"-1"},{"market_uid":424,"pharmacy_name":"행복온누리약국","address":"경기도 고양시 일산동구 위시티로 81, 107호 (식사동, 풍산트윈시티Ⅱ)","latitude":"37.6791318","longitude":"126.8112933","phone_number":"031-978-7496","market_hash_key":"-1"},{"market_uid":425,"pharmacy_name":"행복이가득한서울약국","address":"경기도 고양시 일산서구 중앙로 1470, 3동 3206호 (주엽동, 문촌마을복합상가)","latitude":"37.6723467","longitude":"126.7573454","phone_number":"031 915 5557","market_hash_key":"-1"},{"market_uid":426,"pharmacy_name":"행복한약국","address":"경기도 고양시 일산동구 강송로73번길 7-19, 1층 (백석동)","latitude":"37.6457428","longitude":"126.7907343","phone_number":"031-908-7733","market_hash_key":"-1"},{"market_uid":427,"pharmacy_name":"행신삼보약국","address":"경기도 고양시 덕양구 소원로 47, 112호 (행신동, 무원마을삼보상가)","latitude":"37.6134454","longitude":"126.8309313","phone_number":"031-971-3306","market_hash_key":"-1"},{"market_uid":428,"pharmacy_name":"행신약국","address":"경기도 고양시 덕양구 행당로 35 (행신동)","latitude":"37.6192982","longitude":"126.8285731","phone_number":"031-974-3775","market_hash_key":"-1"},{"market_uid":429,"pharmacy_name":"호산나약국","address":"경기도 고양시 덕양구 중앙로558번길 16-6, 1층 (행신동, 신일빌딩)","latitude":"37.6239131","longitude":"126.8360952","phone_number":"031-979-6878","market_hash_key":"-1"},{"market_uid":430,"pharmacy_name":"호수약국","address":"경기도 고양시 일산동구 장백로 172, 금강프라자 101호 (장항동)","latitude":"37.6501605","longitude":"126.7777132","phone_number":"031-904-2466","market_hash_key":"-1"},{"market_uid":431,"pharmacy_name":"호정약국","address":"경기도 고양시 일산동구 성석로 30, 1(일부)층 (중산동)","latitude":"37.6827366","longitude":"126.7907877","phone_number":"031-975-7589","market_hash_key":"-1"},{"market_uid":432,"pharmacy_name":"호호호약국","address":"경기도 고양시 일산동구 백석로108번길 68-13, 1층 (백석동)","latitude":"37.6461853","longitude":"126.7912656","phone_number":"070-8119-1835","market_hash_key":"-1"},{"market_uid":433,"pharmacy_name":"홈케어웰빙약국","address":"경기도 고양시 일산서구 중앙로 1547, 112호 (대화동, 킨텍스존)","latitude":"37.6747357","longitude":"126.7495162","phone_number":"031 913 7800","market_hash_key":"-1"},{"market_uid":434,"pharmacy_name":"화성삼층약국","address":"경기도 고양시 일산서구 중앙로 1437, 309호 (주엽동, 화성프라자)","latitude":"37.6699656","longitude":"126.7604589","phone_number":"031 918 0533","market_hash_key":"-1"},{"market_uid":435,"pharmacy_name":"화수약국","address":"경기도 고양시 덕양구 화수로14번길 30 (화정동)","latitude":"37.6434380","longitude":"126.8304543","phone_number":"031-969-7724","market_hash_key":"-1"},{"market_uid":436,"pharmacy_name":"화정녹십자약국","address":"경기도 고양시 덕양구 화중로 60, 109호 (화정동, 화정빌딩)","latitude":"37.6323295","longitude":"126.8307632","phone_number":"031-979-8777","market_hash_key":"-1"},{"market_uid":437,"pharmacy_name":"화정마더스 약국","address":"경기도 고양시 덕양구 화정로 52, 지하2층 (화정동, 세이브존)","latitude":"37.6342765","longitude":"126.8313478","phone_number":"031-938-5939","market_hash_key":"-1"},{"market_uid":438,"pharmacy_name":"화정메디칼약국","address":"경기도 고양시 덕양구 화중로 72, 105호 (화정동, 케이탑리츠화정빌딩)","latitude":"37.6335552","longitude":"126.8310096","phone_number":"031-974-5353","market_hash_key":"-1"},{"market_uid":439,"pharmacy_name":"화정봄약국","address":"경기도 고양시 덕양구 화중로 205, 화수빌딩 101-1호 (화정동)","latitude":"37.6452176129","longitude":"126.8336454842","phone_number":"031-967-5554","market_hash_key":"-1"},{"market_uid":440,"pharmacy_name":"화정종로약국","address":"경기도 고양시 덕양구 화정로 53, 403호 (화정동, 새롬프라자)","latitude":"37.6351061","longitude":"126.8318444","phone_number":"031-968-1663","market_hash_key":"-1"},{"market_uid":441,"pharmacy_name":"화정푸른솔약국","address":"경기도 고양시 덕양구 성신로 10, 112호 (화정동, 글로버프라자)","latitude":"37.6275528","longitude":"126.8297320","phone_number":"978-7999","market_hash_key":"-1"},{"market_uid":442,"pharmacy_name":"화정하나로약국","address":"경기도 고양시 덕양구 화정로 47, 304호 (화정동, 동원텔)","latitude":"37.6351054","longitude":"126.8313685","phone_number":"031-968-5113","market_hash_key":"-1"},{"market_uid":443,"pharmacy_name":"화정한약국","address":"경기도 고양시 덕양구 화중로 96, 우정프라자 303호 (화정동)","latitude":"37.6356646107","longitude":"126.8317638279","phone_number":"031-965-1113","market_hash_key":"-1"},{"market_uid":444,"pharmacy_name":"화정햇빛약국","address":"경기도 고양시 덕양구 충장로152번길 47, 105-1호 (행신동, 햇빛마을20단지)","latitude":"37.6245555","longitude":"126.8380648","phone_number":"031-978-4010","market_hash_key":"-1"},{"market_uid":445,"pharmacy_name":"화진약국","address":"경기도 고양시 덕양구 호국로790번길 17, 409호 (성사동, 영프라자)","latitude":"37.6561875","longitude":"126.8372583","phone_number":"031-966-4628","market_hash_key":"-1"},{"market_uid":446,"pharmacy_name":"활기찬 약국","address":"경기도 고양시 덕양구 삼송로 94-22, 105호 (삼송동, 신성프라자)","latitude":"37.6503515637","longitude":"126.8840025718","phone_number":"070-4133-4846","market_hash_key":"-1"},{"market_uid":447,"pharmacy_name":"훈민약국","address":"경기도 고양시 일산동구 숲속마을로 48, 105호 (풍동, 신성프라자)","latitude":"37.6673787916","longitude":"126.7979039985","phone_number":"031-901-1235","market_hash_key":"-1"},{"market_uid":448,"pharmacy_name":"희전약국","address":"경기도 고양시 덕양구 무원로54번길 57, 1층 (행신동)","latitude":"37.6185840","longitude":"126.8330942","phone_number":"031-970-2676","market_hash_key":"-1"},{"market_uid":449,"pharmacy_name":"경마공원약국","address":"경기도 과천시 경마공원대로 107 (주암동)","latitude":"37.4477970","longitude":"127.0167256","phone_number":"02-503-4841","market_hash_key":"-1"},{"market_uid":450,"pharmacy_name":"과천약국","address":"경기도 과천시 중앙로 137 (중앙동, 가보자빌딩 106호)","latitude":"37.4287140","longitude":"126.9916629","phone_number":"02-503-1570","market_hash_key":"-1"},{"market_uid":451,"pharmacy_name":"과천청사온누리약국","address":"경기도 과천시 관문로 47 (중앙동, 정부과천청사 안내동 내)","latitude":"37.4269110","longitude":"126.9840259","phone_number":"02-2110-5928","market_hash_key":"-1"},{"market_uid":452,"pharmacy_name":"그린옵티마약국","address":"경기도 과천시 별양로 28 (원문동, 래미안 슈르 4상가 3025호)","latitude":"37.4205780","longitude":"126.9922516","phone_number":"02-503-1717","market_hash_key":"-1"},{"market_uid":453,"pharmacy_name":"늘푸른약국","address":"경기도 과천시 별양상가1로 30 (별양동, 골든타워 202-1호 일부)","latitude":"37.4282186","longitude":"126.9932786","phone_number":"02-502-1836","market_hash_key":"-1"},{"market_uid":454,"pharmacy_name":"메디컬8층약국","address":"경기도 과천시 별양상가3로 11, 8층 12호 (별양동, 뉴코아)","latitude":"37.4262182","longitude":"126.9918102","phone_number":"02-507-8982","market_hash_key":"-1"},{"market_uid":455,"pharmacy_name":"모범약국","address":"경기도 과천시 별양상가1로 30 (별양동, 골든타워 401호 일부)","latitude":"37.4282186","longitude":"126.9932786","phone_number":"02-502-4608","market_hash_key":"-1"},{"market_uid":456,"pharmacy_name":"발ⓔ편한 세잘 약국","address":"경기도 과천시 문원청계2길 4, 1층 (문원동)","latitude":"37.4239931","longitude":"127.0085306","phone_number":"02-3679-1532","market_hash_key":"-1"},{"market_uid":457,"pharmacy_name":"삼화약국","address":"경기도 과천시 별양상가3로 5 (별양동, 유니온빌딩)","latitude":"37.4265786","longitude":"126.9910871","phone_number":"02-3679-6321","market_hash_key":"-1"},{"market_uid":458,"pharmacy_name":"상우약국","address":"경기도 과천시 별양로 28 (원문동, 래미안 슈르 4상가 B동 3078호~3079호)","latitude":"37.4205780","longitude":"126.9922516","phone_number":"02-504-3121","market_hash_key":"-1"},{"market_uid":459,"pharmacy_name":"서울온누리약국","address":"경기도 과천시 별양로 182-2 (부림동, 46번지 시대빌딩 102호, 102-1호)","latitude":"37.4340213","longitude":"126.9980799","phone_number":"02-502-9799","market_hash_key":"-1"},{"market_uid":460,"pharmacy_name":"서해약국","address":"경기도 과천시 별양상가1로 35 (별양동, 상아빌딩 109호~110호)","latitude":"37.4284709","longitude":"126.9935045","phone_number":"02-503-1627","market_hash_key":"-1"},{"market_uid":461,"pharmacy_name":"손 약국","address":"경기도 과천시 별양상가1로 35 (별양동, 상아빌딩 201호)","latitude":"37.4284709","longitude":"126.9935045","phone_number":"02-502-1725","market_hash_key":"-1"},{"market_uid":462,"pharmacy_name":"스마트 약국","address":"경기도 과천시 새술막길 39 (중앙동, KT 스마트타워 3층 일부)","latitude":"37.4292997","longitude":"126.9917532","phone_number":"02)3679-4888","market_hash_key":"-1"},{"market_uid":463,"pharmacy_name":"온누리건강나라약국","address":"경기도 과천시 별양상가2로 20, 새서울프라자 1층 113호 (별양동)","latitude":"37.4267499","longitude":"126.9924993","phone_number":"02-3418-6464","market_hash_key":"-1"},{"market_uid":464,"pharmacy_name":"온누리길약국","address":"경기도 과천시 별양상가1로 25 (별양동, 렉스타운 404호)","latitude":"37.4281915","longitude":"126.9924765","phone_number":"02-502-1966","market_hash_key":"-1"},{"market_uid":465,"pharmacy_name":"이화약국","address":"경기도 과천시 별양상가1로 25 (별양동, 렉스타운 105호)","latitude":"37.4281915","longitude":"126.9924765","phone_number":"02-503-7750","market_hash_key":"-1"},{"market_uid":466,"pharmacy_name":"제일약국","address":"경기도 과천시 별양상가2로 14 (별양동, 제일쇼핑 101호~102호)","latitude":"37.4272455","longitude":"126.9929511","phone_number":"02-504-1020","market_hash_key":"-1"},{"market_uid":467,"pharmacy_name":"조일약국","address":"경기도 과천시 별양로 64 (별양동, 의료상가 106호)","latitude":"37.4243533","longitude":"126.9939231","phone_number":"02-502-7781","market_hash_key":"-1"},{"market_uid":468,"pharmacy_name":"천사약국","address":"경기도 과천시 별양로 182-2, 2층 206호 (부림동, 과천시대빌딩)","latitude":"37.4340213","longitude":"126.9980799","phone_number":"02-3679-1179","market_hash_key":"-1"},{"market_uid":469,"pharmacy_name":"한가람약국","address":"경기도 과천시 별양로 28, 2054호 (원문동, 래미안 슈르)","latitude":"37.4205780","longitude":"126.9922516","phone_number":"02-3679-0778","market_hash_key":"-1"},{"market_uid":470,"pharmacy_name":"행복한약국","address":"경기도 과천시 별양상가1로 38 (별양동, 백두상가 302호 일부)","latitude":"37.4280835","longitude":"126.9935046","phone_number":"02-503-1116","market_hash_key":"-1"},{"market_uid":471,"pharmacy_name":"100세약국","address":"경기도 광명시 광명로 877 (광명동, 한진아파트상가 B-2104호)","latitude":"37.4776778","longitude":"126.8521013","phone_number":"02-2619-0081","market_hash_key":"-1"},{"market_uid":472,"pharmacy_name":"21세기약국","address":"경기도 광명시 오리로 853, 1층 (철산동)","latitude":"37.4744067","longitude":"126.8665443","phone_number":"02-2689-1925","market_hash_key":"-1"},{"market_uid":473,"pharmacy_name":"365굿모닝약국","address":"경기도 광명시 디지털로 19, 서림빌딩 107호 (철산동)","latitude":"37.4739597608","longitude":"126.8696201037","phone_number":"02-2687-7789","market_hash_key":"-1"},{"market_uid":474,"pharmacy_name":"365밝은약국","address":"경기도 광명시 광명로 914-1, 1층 밝은약국 (광명동)","latitude":"37.4802675170","longitude":"126.8551261507","phone_number":"02-2612-4100","market_hash_key":"-1"},{"market_uid":475,"pharmacy_name":"3층약국","address":"경기도 광명시 광명로 841, 3층 (광명동)","latitude":"37.4742354","longitude":"126.8516561","phone_number":"02-2681-8729","market_hash_key":"-1"},{"market_uid":476,"pharmacy_name":"M프라자약국","address":"경기도 광명시 금하로 464, 107,108호 (소하동, 메이저리치안)","latitude":"37.4483777","longitude":"126.8840064","phone_number":"02-898-0575","market_hash_key":"-1"},{"market_uid":477,"pharmacy_name":"건강한약국","address":"경기도 광명시 광명로 824, 1층 (광명동)","latitude":"37.4727125","longitude":"126.8514896","phone_number":"02-2681-7077","market_hash_key":"-1"},{"market_uid":478,"pharmacy_name":"골든힐약국","address":"경기도 광명시 범안로 1056 (하안동, 골든힐빌딩 110호)","latitude":"37.4623483","longitude":"126.8802091","phone_number":"02-892-6920","market_hash_key":"-1"},{"market_uid":479,"pharmacy_name":"광명마더스약국","address":"경기도 광명시 철망산로 87, 지층 (철산동, 세이브존)","latitude":"37.4721292342","longitude":"126.8764513276","phone_number":"02-3666-5121","market_hash_key":"-1"},{"market_uid":480,"pharmacy_name":"광명모범약국","address":"경기도 광명시 오리로 976, 1층 (광명동)","latitude":"37.4794021","longitude":"126.8548226","phone_number":"02-2612-2705","market_hash_key":"-1"},{"market_uid":481,"pharmacy_name":"광명사랑약국","address":"경기도 광명시 오리로 929-1, 1층 (광명동)","latitude":"37.4776240000","longitude":"126.8595178578","phone_number":"02 2688 8812","market_hash_key":"-1"},{"market_uid":482,"pharmacy_name":"광명수약국","address":"경기도 광명시 광복로 66, 1층 102호 (철산동)","latitude":"37.4896775","longitude":"126.8656233","phone_number":"02-2687-2008","market_hash_key":"-1"},{"market_uid":483,"pharmacy_name":"광명신세계약국","address":"경기도 광명시 광명로 906, 현대아이타워 1층 106호 (광명동)","latitude":"37.4796544878","longitude":"126.8548447146","phone_number":"02-2688-7331","market_hash_key":"-1"},{"market_uid":484,"pharmacy_name":"광명종로약국","address":"경기도 광명시 광복로 37 (광명동)","latitude":"37.4882600","longitude":"126.8631497","phone_number":"02-2682-8477","market_hash_key":"-1"},{"market_uid":485,"pharmacy_name":"광명파란문약국","address":"경기도 광명시 양지로 16, B1층 32호 (일직동, 광명역써밋플레이스)","latitude":"37.4164697695","longitude":"126.8806228855","phone_number":"02-899-6209","market_hash_key":"-1"},{"market_uid":486,"pharmacy_name":"광명하나약국","address":"경기도 광명시 범안로 1045, 1층 102호 (하안동)","latitude":"37.4623468","longitude":"126.8787849","phone_number":"02-802-5850","market_hash_key":"-1"},{"market_uid":487,"pharmacy_name":"광명훼미리약국","address":"경기도 광명시 광명로 831, 1층 (광명동)","latitude":"37.4735683","longitude":"126.8513748","phone_number":"02-2617-7205","market_hash_key":"-1"},{"market_uid":488,"pharmacy_name":"광명희망약국","address":"경기도 광명시 오리로 872, 101호 (철산동)","latitude":"37.4759914","longitude":"126.8656257","phone_number":"02-2682-7538","market_hash_key":"-1"},{"market_uid":489,"pharmacy_name":"광복약국","address":"경기도 광명시 광복로 64 (철산동, 상원빌딩)","latitude":"37.4895963","longitude":"126.8654878","phone_number":"02-2625-3007","market_hash_key":"-1"},{"market_uid":490,"pharmacy_name":"그린약국","address":"경기도 광명시 하안로 298, 1층 101호 (하안동)","latitude":"37.4621322","longitude":"126.8803225","phone_number":"02-804-7582","market_hash_key":"-1"},{"market_uid":491,"pharmacy_name":"금화온누리약국","address":"경기도 광명시 철산로 12, 로데오빌딩 1층 4호 (철산동)","latitude":"37.4754620","longitude":"126.8675146","phone_number":"02-2612-2090","market_hash_key":"-1"},{"market_uid":492,"pharmacy_name":"기운찬판도라약국","address":"경기도 광명시 광명로 907, 광명빌딩 (광명동)","latitude":"37.4798520","longitude":"126.8542903","phone_number":"02-2060-6672","market_hash_key":"-1"},{"market_uid":493,"pharmacy_name":"김약국","address":"경기도 광명시 광명로 963 (광명동)","latitude":"37.4846568","longitude":"126.8563159","phone_number":"02-2618-8288","market_hash_key":"-1"},{"market_uid":494,"pharmacy_name":"나나약국","address":"경기도 광명시 오리로 966 (광명동)","latitude":"37.4793496","longitude":"126.8560437","phone_number":"02-2612-1004","market_hash_key":"-1"},{"market_uid":495,"pharmacy_name":"남촌약국","address":"경기도 광명시 도덕공원로 21, 1층 (철산동)","latitude":"37.4708468","longitude":"126.8656803","phone_number":"02-2612-2978","market_hash_key":"-1"},{"market_uid":496,"pharmacy_name":"노벨약국","address":"경기도 광명시 하안로 295, 1층 (하안동)","latitude":"37.4619065","longitude":"126.8798707","phone_number":"02-898-0607","market_hash_key":"-1"},{"market_uid":497,"pharmacy_name":"늘푸른약국","address":"경기도 광명시 광명역로 21, 고속철도 광명역 (일직동)","latitude":"37.4171317","longitude":"126.8847675","phone_number":"02-877-6706","market_hash_key":"-1"},{"market_uid":498,"pharmacy_name":"다나약국","address":"경기도 광명시 안현로 19, 하안주공1단지종합상가 1층 123호 (하안동)","latitude":"37.4642970","longitude":"126.8741247","phone_number":"02-891-9989","market_hash_key":"-1"},{"market_uid":499,"pharmacy_name":"다정약국","address":"경기도 광명시 오리로 960 (광명동)","latitude":"37.4789358","longitude":"126.8565419","phone_number":"02-2060-3371","market_hash_key":"-1"},{"market_uid":500,"pharmacy_name":"대건약국","address":"경기도 광명시 금당로 36, 1층 117호 (하안동, 하안주공8단지아파트)","latitude":"37.4588274","longitude":"126.8821476","phone_number":"02-803-1211","market_hash_key":"-1"},{"market_uid":501,"pharmacy_name":"더블유약국","address":"경기도 광명시 하안로 289, 1층 (하안동)","latitude":"37.4615464","longitude":"126.8801539","phone_number":"02-802-1355","market_hash_key":"-1"},{"market_uid":502,"pharmacy_name":"드림약국","address":"경기도 광명시 오리로 346, 1층 114호 (소하동)","latitude":"37.4331554","longitude":"126.8797031","phone_number":"02-899-9543","market_hash_key":"-1"},{"market_uid":503,"pharmacy_name":"라라약국","address":"경기도 광명시 신기로 21, GS steel Tower 105호 (일직동)","latitude":"37.4201039","longitude":"126.8836784","phone_number":"02-6012-4489","market_hash_key":"-1"},{"market_uid":504,"pharmacy_name":"마루약국","address":"경기도 광명시 철산로 15, 웅진빌딩 102호 (철산동)","latitude":"37.4763721653","longitude":"126.8676260995","phone_number":"02-2682-9752","market_hash_key":"-1"},{"market_uid":505,"pharmacy_name":"마음드림약국","address":"경기도 광명시 금하로 458, 웅신아트 113호 (소하동)","latitude":"37.4483229","longitude":"126.8832946","phone_number":"02-898-2655","market_hash_key":"-1"},{"market_uid":506,"pharmacy_name":"메디팜보강약국","address":"경기도 광명시 디지털로 29, 1층 104,105호 (철산동)","latitude":"37.4740692","longitude":"126.8707956","phone_number":"02-2686-4033","market_hash_key":"-1"},{"market_uid":507,"pharmacy_name":"명성약국","address":"경기도 광명시 오리로 941, 1층 (광명동)","latitude":"37.4779828","longitude":"126.8582622","phone_number":"02-2612-2415","market_hash_key":"-1"},{"market_uid":508,"pharmacy_name":"명신약국","address":"경기도 광명시 도덕로 40, 3층 301호 (광명동)","latitude":"37.4683256","longitude":"126.8522106","phone_number":"02-2625-1220","market_hash_key":"-1"},{"market_uid":509,"pharmacy_name":"명지옵티마약국","address":"경기도 광명시 오리로 865, 1층 2호 (철산동)","latitude":"37.4752619","longitude":"126.8658758","phone_number":"02-2684-1251","market_hash_key":"-1"},{"market_uid":510,"pharmacy_name":"무지개약국","address":"경기도 광명시 오리로 861 (철산동)","latitude":"37.4750189","longitude":"126.8661249","phone_number":"02-2685-9989","market_hash_key":"-1"},